[{"crs":"ZAJ","lat":0.0,"lon":0.0,"name":"Aldershot North Junction"},{"crs":"ZLR","lat":0.0,"lon":0.0,"name":"London Road Depot"},{"crs":"BKI","lat":0.0,"lon":0.0,"name":"Birkenhead 12 Quays"},{"crs":"ZLB","lat":0.0,"lon":0.0,"name":"Lillie Bridge Depot LUL"},{"crs":"OXP","lat":0.0,"lon":0.0,"name":"Oxford Parkway"},{"crs":"ZGP","lat":0.0,"lon":0.0,"name":"Gravesend Town Pier"},{"crs":"ZMJ","lat":0.0,"lon":0.0,"name":"Mansfield Junction"},{"crs":"ZPB","lat":0.0,"lon":0.0,"name":"Pirbright Junction"},{"crs":"ZBM","lat":0.0,"lon":0.0,"name":"Borough Market Junction"},{"crs":"ZSL","lat":0.0,"lon":0.0,"name":"Shettleston Loop"},{"crs":"ILN","lat":0.0,"lon":0.0,"name":"Ilkeston"},{"crs":"XJV","lat":0.0,"lon":0.0,"name":"Bicester South Junction"},{"crs":"ZCR","lat":0.0,"lon":0.0,"name":"CARLLRJ"},{"crs":"WPK","lat":0.0,"lon":0.0,"name":"Wimbledon Park"},{"crs":"ZNJ","lat":52.2427,"lon":-0.907905,"name":"Northampton North Junction"},{"crs":"ZPS","lat":51.5314,"lon":0.01722,"name":"Plaistow L.T."},{"crs":"MSC","lat":43.3032794,"lon":5.380142,"name":"Marseille St Charles"},{"crs":"XCS","lat":0.0,"lon":0.0,"name":"Carnforth D&U.G.L."},{"crs":"ZAE","lat":51.51504,"lon":-0.07236,"name":"Aldgate East"},{"crs":"ZEP","lat":51.4592,"lon":-0.21098,"name":"East Putney"},{"crs":"GBG","lat":55.8404,"lon":-3.0468,"name":"Gorebridge"},{"crs":"ZHR","lat":51.5527,"lon":-0.11322,"name":"Holloway Road"},{"crs":"ZPN","lat":51.5166744,"lon":-0.1769328,"name":"Paddington (Bakerloo Line)"},{"crs":"FKE","lat":0.0,"lon":0.0,"name":"Folkestone East"},{"crs":"NMC","lat":53.3648401443,"lon":-2.0056711374,"name":"New Mills Central"},{"crs":"HBB","lat":52.9753511177,"lon":-0.1105287605,"name":"Hubberts Bridge"},{"crs":"ADC","lat":53.3195523578,"lon":-2.1335624739,"name":"Adlington (Cheshire)"},{"crs":"WHI","lat":51.3575806175,"lon":1.0332947133,"name":"Whitstable"},{"crs":"FEG","lat":54.9575,"lon":-1.4856,"name":"Fellgate (T & W Metro)"},{"crs":"HRH","lat":51.0660631244,"lon":-0.3192694872,"name":"Horsham"},{"crs":"LNW","lat":52.1047090977,"lon":-3.6321632943,"name":"Llanwrtyd"},{"crs":"RYP","lat":50.7391832791,"lon":-1.1601266594,"name":"Ryde Pier Head"},{"crs":"PRU","lat":54.965826627,"lon":-1.8648655591,"name":"Prudhoe"},{"crs":"TLH","lat":51.4715069735,"lon":-1.0298158887,"name":"Tilehurst"},{"crs":"SBM","lat":51.4881337013,"lon":-0.0546777326,"name":"South Bermondsey"},{"crs":"TAM","lat":52.6374725973,"lon":-1.6864643917,"name":"Tamworth"},{"crs":"CFD","lat":53.724075599,"lon":-1.3546526255,"name":"Castleford"},{"crs":"NMN","lat":53.3596265721,"lon":-2.0085252643,"name":"New Mills Newtown"},{"crs":"HFS","lat":53.5887136878,"lon":-1.0233772749,"name":"Hatfield & Stainforth"},{"crs":"WFN","lat":51.6757022198,"lon":-0.3899257938,"name":"Watford North"},{"crs":"GWN","lat":51.6487235856,"lon":-4.0359344791,"name":"Gowerton"},{"crs":"WMW","lat":51.5815010472,"lon":-0.0238458872,"name":"Walthamstow Queens Road"},{"crs":"INP","lat":55.9061031215,"lon":-4.8725860728,"name":"Inverkip"},{"crs":"WRW","lat":52.2865380165,"lon":-1.5818545007,"name":"Warwick"},{"crs":"WHG","lat":53.5556681967,"lon":-2.523726645,"name":"Westhoughton"},{"crs":"WIM","lat":51.4212737187,"lon":-0.2063686577,"name":"Wimbledon"},{"crs":"CLM","lat":53.144084481,"lon":-0.7503938977,"name":"Collingham"},{"crs":"DRF","lat":54.0015264664,"lon":-0.4346649943,"name":"Driffield"},{"crs":"NWT","lat":52.5123121209,"lon":-3.3113916902,"name":"Newtown (Powys)"},{"crs":"SOE","lat":51.5389706061,"lon":0.7318147146,"name":"Southend East"},{"crs":"PNF","lat":53.1430873867,"lon":-3.054838192,"name":"Penyffordd"},{"crs":"WYE","lat":51.1850096683,"lon":0.9293036964,"name":"Wye"},{"crs":"BAR","lat":54.0745397918,"lon":-2.8353303932,"name":"Bare Lane"},{"crs":"YRM","lat":54.4938973898,"lon":-1.3515450592,"name":"Yarm"},{"crs":"NTH","lat":51.6623591113,"lon":-3.8072189039,"name":"Neath"},{"crs":"CYA","lat":0.0,"lon":0.0,"name":"Colonsay (Bus)"},{"crs":"ERH","lat":51.4816690069,"lon":0.1750544565,"name":"Erith"},{"crs":"CFO","lat":51.6681066487,"lon":-0.5605263752,"name":"Chalfont & Latimer"},{"crs":"FGW","lat":52.004112007,"lon":-4.9948376525,"name":"Fishguard & Goodwick"},{"crs":"BAY","lat":51.7577145741,"lon":-0.0956100151,"name":"Bayford"},{"crs":"BER","lat":52.2444087463,"lon":-1.7502552968,"name":"Bearley"},{"crs":"SIT","lat":51.3419747271,"lon":0.7346843484,"name":"Sittingbourne"},{"crs":"WHL","lat":51.6050351995,"lon":-0.0709136147,"name":"White Hart Lane"},{"crs":"DRN","lat":57.319975113,"lon":-5.6913160145,"name":"Duirinish"},{"crs":"SWK","lat":50.8325143684,"lon":-0.2359618656,"name":"Southwick"},{"crs":"MTM","lat":51.1706757036,"lon":1.3482170569,"name":"Martin Mill"},{"crs":"NWR","lat":57.0591449132,"lon":-4.1191088148,"name":"Newtonmore"},{"crs":"ADW","lat":55.8434078425,"lon":-3.6065263768,"name":"Addiewell"},{"crs":"ALV","lat":52.34606892,"lon":-1.9676605017,"name":"Alvechurch"},{"crs":"SQE","lat":51.4931944778,"lon":-0.0475186583,"name":"Surrey Quays"},{"crs":"HIG","lat":51.2181550292,"lon":-2.9721533908,"name":"Highbridge & Burnham"},{"crs":"RMC","lat":53.4322515598,"lon":-1.3604345608,"name":"Rotherham Central"},{"crs":"NTN","lat":55.8187767166,"lon":-4.1330547094,"name":"Newton"},{"crs":"SGQ","lat":0.0,"lon":0.0,"name":"Stone Granville Square (Bus)"},{"crs":"CBN","lat":50.2104339259,"lon":-5.2974106707,"name":"Camborne"},{"crs":"RIA","lat":51.3870645978,"lon":-3.3493838353,"name":"Rhoose Cardiff Intl Airport"},{"crs":"BXW","lat":51.2540100143,"lon":-0.3284899417,"name":"Boxhill & Westhumble"},{"crs":"TNN","lat":53.6160612438,"lon":-0.9723307795,"name":"Thorne North"},{"crs":"FTN","lat":50.7963371061,"lon":-1.0739827023,"name":"Fratton"},{"crs":"RUA","lat":52.9871331351,"lon":-3.0431385423,"name":"Ruabon"},{"crs":"XEA","lat":0.0,"lon":0.0,"name":"Glastonbury (Bus)"},{"crs":"LAY","lat":53.8352662599,"lon":-3.0299904259,"name":"Layton"},{"crs":"LLV","lat":51.9953106369,"lon":-3.8028287931,"name":"Llandovery"},{"crs":"MAS","lat":54.9727635181,"lon":-1.6047409573,"name":"Manors"},{"crs":"CLG","lat":51.3612121808,"lon":-0.3482477833,"name":"Claygate"},{"crs":"CTT","lat":52.5374196679,"lon":-2.8036943079,"name":"Church Stretton"},{"crs":"GGV","lat":53.9784147736,"lon":-2.1051703793,"name":"Gargrave"},{"crs":"XWU","lat":0.0,"lon":0.0,"name":"Warwick University (Bus)"},{"crs":"DEB","lat":0.0,"lon":0.0,"name":"Dereham Market Place (Bus)"},{"crs":"TNS","lat":53.6033280106,"lon":-0.9551092058,"name":"Thorne South"},{"crs":"CRE","lat":53.0896232278,"lon":-2.4329688231,"name":"Crewe"},{"crs":"WXC","lat":53.0461864329,"lon":-2.9990525115,"name":"Wrexham Central"},{"crs":"CAD","lat":51.4122777853,"lon":-3.2488953226,"name":"Cadoxton"},{"crs":"HYB","lat":52.1015987098,"lon":-1.833742716,"name":"Honeybourne"},{"crs":"WGT","lat":54.829115572,"lon":-3.1643426167,"name":"Wigton"},{"crs":"XWX","lat":0.0,"lon":0.0,"name":"Wallingford Market Place (Bus)"},{"crs":"WRX","lat":53.0502301341,"lon":-3.0024430064,"name":"Wrexham General"},{"crs":"RHO","lat":53.2348357504,"lon":-4.5066417879,"name":"Rhosneigr"},{"crs":"XEI","lat":0.0,"lon":0.0,"name":"St Neots (Bus)"},{"crs":"KWL","lat":51.7343398642,"lon":-4.3169853918,"name":"Kidwelly"},{"crs":"RYD","lat":50.7328666299,"lon":-1.1596161159,"name":"Ryde Esplanade"},{"crs":"PTL","lat":55.8121704889,"lon":-4.3428945777,"name":"Priesthill & Darnley"},{"crs":"NWN","lat":53.4563785555,"lon":-2.0671423853,"name":"Newton for Hyde"},{"crs":"BNX","lat":0.0,"lon":0.0,"name":"Barnsley (Bus)"},{"crs":"SBP","lat":51.5441091603,"lon":-0.2758284211,"name":"Stonebridge Park"},{"crs":"PEV","lat":50.8157972369,"lon":0.3248074095,"name":"Pevensey & Westham"},{"crs":"ACL","lat":52.6346797137,"lon":1.5439151251,"name":"Acle"},{"crs":"GDH","lat":51.6633332921,"lon":-0.0946105066,"name":"Gordon Hill"},{"crs":"DUO","lat":0.0,"lon":0.0,"name":"Dunoon (Bus)"},{"crs":"LSY","lat":51.4248288822,"lon":-0.0333454817,"name":"Lower Sydenham"},{"crs":"SEB","lat":54.9295339682,"lon":-1.3866933394,"name":"Seaburn (T & W Metro)"},{"crs":"AYW","lat":52.414043091,"lon":-4.0818934488,"name":"Aberystwyth"},{"crs":"LNZ","lat":55.921317151,"lon":-4.153890385,"name":"Lenzie"},{"crs":"MDS","lat":51.3961144585,"lon":-0.199460991,"name":"Morden South"},{"crs":"ADD","lat":52.4830842819,"lon":-1.8559444316,"name":"Adderley Park"},{"crs":"EFL","lat":51.2552356777,"lon":0.4847289517,"name":"East Farleigh"},{"crs":"SPU","lat":51.1714654146,"lon":0.5504384121,"name":"Staplehurst"},{"crs":"UHL","lat":51.5636293728,"lon":-0.129513077,"name":"Upper Holloway"},{"crs":"WLP","lat":52.6574926472,"lon":-3.1398711868,"name":"Welshpool"},{"crs":"CAS","lat":53.591844992,"lon":-2.1782339139,"name":"Castleton"},{"crs":"HAM","lat":50.7251901159,"lon":-2.0193569679,"name":"Hamworthy"},{"crs":"BGN","lat":51.5069716967,"lon":-3.5752756295,"name":"Bridgend"},{"crs":"BRN","lat":55.9171281526,"lon":-4.3320200745,"name":"Bearsden"},{"crs":"WIT","lat":0.0,"lon":0.0,"name":"London Waterloo Intl"},{"crs":"APG","lat":52.0212350827,"lon":-0.6323344794,"name":"Aspley Guise"},{"crs":"XCF","lat":0.0,"lon":0.0,"name":"Cardiff Intl Airport (Bus)"},{"crs":"DEW","lat":53.6921297452,"lon":-1.633106396,"name":"Dewsbury"},{"crs":"BPS","lat":53.7986991051,"lon":-3.0489377781,"name":"Blackpool South"},{"crs":"GOZ","lat":0.0,"lon":0.0,"name":"Goldthorpe (Bus)"},{"crs":"KSL","lat":53.5441375137,"lon":-2.3751196356,"name":"Kearsley"},{"crs":"PYJ","lat":55.8521165266,"lon":-4.442442885,"name":"Paisley St James"},{"crs":"NBA","lat":51.6485727336,"lon":-0.1729971535,"name":"New Barnet"},{"crs":"WHR","lat":51.5679433619,"lon":0.3406436499,"name":"West Horndon"},{"crs":"HLD","lat":54.0108608326,"lon":-2.2278446098,"name":"Hellifield"},{"crs":"RDR","lat":51.5163209454,"lon":-3.2483527772,"name":"Radyr"},{"crs":"BPL","lat":0.0,"lon":0.0,"name":"Barlaston Orchard Place (Bus)"},{"crs":"VAL","lat":53.2812825255,"lon":-4.5633687262,"name":"Valley"},{"crs":"BSD","lat":51.2758194355,"lon":0.577580382,"name":"Bearsted"},{"crs":"FIT","lat":51.5049372718,"lon":-2.5624305358,"name":"Filton Abbey Wood"},{"crs":"NAY","lat":54.6137012274,"lon":-1.5896451945,"name":"Newton Aycliffe"},{"crs":"BWK","lat":55.7743362079,"lon":-2.0109733338,"name":"Berwick-upon-Tweed"},{"crs":"BIF","lat":54.1189985002,"lon":-3.2261202943,"name":"Barrow-in-Furness"},{"crs":"DMY","lat":55.9045907019,"lon":-4.3854721907,"name":"Drumry"},{"crs":"CKH","lat":55.8374996723,"lon":-4.3342924452,"name":"Corkerhill"},{"crs":"LBK","lat":52.294714498,"lon":-1.0864668032,"name":"Long Buckby"},{"crs":"RCF","lat":0.0,"lon":0.0,"name":"Radcliffe Metrolink (Bus)"},{"crs":"BEA","lat":56.1566341304,"lon":-3.9572284729,"name":"Bridge of Allan"},{"crs":"PEB","lat":50.8174587108,"lon":0.342906572,"name":"Pevensey Bay"},{"crs":"CRL","lat":53.6525344499,"lon":-2.626840629,"name":"Chorley"},{"crs":"ECS","lat":52.4708819426,"lon":0.9699172235,"name":"Eccles Road"},{"crs":"FSG","lat":50.834232691,"lon":-0.2194232307,"name":"Fishersgate"},{"crs":"YSR","lat":51.6436381364,"lon":-3.4666845504,"name":"Ystrad Rhondda"},{"crs":"UNV","lat":54.9028,"lon":-1.3921,"name":"University (T & W Metro)"},{"crs":"WCL","lat":55.8538022714,"lon":-3.5670167141,"name":"West Calder"},{"crs":"GNW","lat":51.4781331674,"lon":-0.0133399218,"name":"Greenwich"},{"crs":"SAB","lat":50.7111007152,"lon":-1.1541982761,"name":"Smallbrook Junction"},{"crs":"BDA","lat":52.6194812583,"lon":1.4392988175,"name":"Brundall"},{"crs":"XPB","lat":0.0,"lon":0.0,"name":"Bristol Intl Airport (Bus)"},{"crs":"LNG","lat":51.3851710425,"lon":-0.5945699832,"name":"Longcross"},{"crs":"PSW","lat":52.6258305208,"lon":-1.6105401119,"name":"Polesworth"},{"crs":"SPP","lat":52.4302114927,"lon":0.4133451748,"name":"Shippea Hill"},{"crs":"FIL","lat":54.2098566227,"lon":-0.293849388,"name":"Filey"},{"crs":"HRR","lat":54.6134828445,"lon":-3.5655146032,"name":"Harrington"},{"crs":"MGM","lat":53.138878134,"lon":-0.3914531335,"name":"Metheringham"},{"crs":"RAV","lat":54.3557055854,"lon":-3.4088136347,"name":"Ravenglass for Eskdale"},{"crs":"OLT","lat":52.43850976,"lon":-1.8043093837,"name":"Olton"},{"crs":"CRD","lat":52.5356444865,"lon":-1.8324792995,"name":"Chester Road"},{"crs":"SAH","lat":52.6755727981,"lon":1.3914154752,"name":"Salhouse"},{"crs":"GIL","lat":51.0340326849,"lon":-2.2726236998,"name":"Gillingham (Dorset)"},{"crs":"GNT","lat":52.8663444334,"lon":1.3491163456,"name":"Gunton"},{"crs":"FEN","lat":52.0000671054,"lon":-0.7159973278,"name":"Fenny Stratford"},{"crs":"CBB","lat":50.1970471592,"lon":-5.4632629138,"name":"Carbis Bay"},{"crs":"XLU","lat":0.0,"lon":0.0,"name":"Bishops Lydeard (Bus)"},{"crs":"BLW","lat":52.9996938249,"lon":-1.1962304761,"name":"Bulwell"},{"crs":"FMR","lat":50.8621271605,"lon":-0.0873855008,"name":"Falmer"},{"crs":"WNY","lat":51.8389098084,"lon":0.5958634308,"name":"White Notley"},{"crs":"SFD","lat":53.4830816851,"lon":-2.254840688,"name":"Salford Central"},{"crs":"BGI","lat":55.8512901243,"lon":-4.073807304,"name":"Bargeddie"},{"crs":"WLY","lat":53.4292516559,"lon":-2.0932715505,"name":"Woodley"},{"crs":"BYC","lat":53.0920646818,"lon":-3.8008612729,"name":"Betws-y-Coed"},{"crs":"WYT","lat":52.3799348588,"lon":-1.8655349326,"name":"Wythall"},{"crs":"KID","lat":52.3844807821,"lon":-2.2384707238,"name":"Kidderminster"},{"crs":"SMO","lat":51.4029912575,"lon":-0.2051574707,"name":"South Merton"},{"crs":"ULC","lat":53.6191990163,"lon":-0.3008267607,"name":"Ulceby"},{"crs":"AWK","lat":53.5723190827,"lon":-1.1803562442,"name":"Adwick"},{"crs":"CRR","lat":56.7602126963,"lon":-4.6906001534,"name":"Corrour"},{"crs":"OVR","lat":51.2542920106,"lon":-1.2592676033,"name":"Overton"},{"crs":"RET","lat":53.3151522797,"lon":-0.9478840247,"name":"Retford"},{"crs":"STQ","lat":50.8951507027,"lon":-1.4058303316,"name":"Southampton Town Quay (Bus)"},{"crs":"BBS","lat":52.4718713332,"lon":-1.8777686448,"name":"Bordesley"},{"crs":"GOS","lat":54.1957204416,"lon":-2.9027472743,"name":"Grange-over-Sands"},{"crs":"MAY","lat":55.3547348083,"lon":-4.6852886572,"name":"Maybole"},{"crs":"YET","lat":50.8957627275,"lon":-2.5737556331,"name":"Yetminster"},{"crs":"LIH","lat":51.1938989259,"lon":0.2104949254,"name":"Leigh (Kent)"},{"crs":"SMC","lat":50.7700984373,"lon":-3.948890979,"name":"Sampford Courtenay"},{"crs":"SLO","lat":51.5118786199,"lon":-0.5915104152,"name":"Slough"},{"crs":"LHE","lat":56.8552667646,"lon":-5.1915764704,"name":"Loch Eil Outward Bound"},{"crs":"WBP","lat":51.487059502,"lon":-0.1955926332,"name":"West Brompton"},{"crs":"NBT","lat":51.4123558164,"lon":-0.2840250214,"name":"Norbiton"},{"crs":"KVP","lat":53.3367133482,"lon":-1.239844536,"name":"Kiveton Park"},{"crs":"PNL","lat":53.9583226131,"lon":-1.5334669813,"name":"Pannal"},{"crs":"XDC","lat":0.0,"lon":0.0,"name":"Wantage (Bus)"},{"crs":"MEO","lat":53.3994377886,"lon":-3.1542691426,"name":"Meols"},{"crs":"SRG","lat":51.6098429771,"lon":-0.6078185199,"name":"Seer Green"},{"crs":"CTO","lat":52.9650855881,"lon":-1.078654956,"name":"Carlton"},{"crs":"GLY","lat":50.8591701339,"lon":0.0700772938,"name":"Glynde"},{"crs":"MSW","lat":53.1635613188,"lon":-1.201848512,"name":"Mansfield Woodhouse"},{"crs":"IBM","lat":55.9294457317,"lon":-4.8272399304,"name":"IBM"},{"crs":"BRL","lat":55.0970029508,"lon":-4.7817809608,"name":"Barrhill"},{"crs":"TRD","lat":51.7124236581,"lon":-3.346743951,"name":"Troed-y-rhiw"},{"crs":"MEC","lat":53.64627017,"lon":-2.9758037394,"name":"Meols Cop"},{"crs":"BUR","lat":0.0,"lon":0.0,"name":"Bury Metrolink (Bus)"},{"crs":"POL","lat":50.7312789586,"lon":-3.501947107,"name":"Polsloe Bridge"},{"crs":"TPN","lat":51.647798896,"lon":-3.486187291,"name":"Ton Pentre"},{"crs":"BCK","lat":53.1630341239,"lon":-3.0559256412,"name":"Buckley"},{"crs":"CHC","lat":55.8646805339,"lon":-4.2698199,"name":"Charing Cross (Glasgow)"},{"crs":"SRA","lat":51.5418931846,"lon":-0.0033967356,"name":"Stratford (London)"},{"crs":"WWO","lat":50.81835208,"lon":-0.3929851882,"name":"West Worthing"},{"crs":"RSH","lat":53.3962217248,"lon":-2.0765215016,"name":"Rose Hill Marple"},{"crs":"SMT","lat":51.7878386588,"lon":0.0012691378,"name":"St Margarets (Hertfordshire)"},{"crs":"WIH","lat":51.6339402167,"lon":-0.1009002346,"name":"Winchmore Hill"},{"crs":"CRS","lat":55.6910451568,"lon":-3.6684732103,"name":"Carstairs"},{"crs":"KGX","lat":51.5308814777,"lon":-0.122925986,"name":"London Kings Cross"},{"crs":"ULP","lat":0.0,"lon":0.0,"name":"Ullapool (Bus)"},{"crs":"XEZ","lat":0.0,"lon":0.0,"name":"Bicester (Bus)"},{"crs":"LHS","lat":51.5125348163,"lon":-0.039802862,"name":"Limehouse"},{"crs":"THB","lat":55.8110982457,"lon":-4.311707065,"name":"Thornliebank"},{"crs":"DRT","lat":53.5883661036,"lon":-1.5316574337,"name":"Darton"},{"crs":"LLD","lat":53.3209147017,"lon":-3.8270011059,"name":"Llandudno"},{"crs":"NRN","lat":57.5802450776,"lon":-3.8720000323,"name":"Nairn"},{"crs":"KGE","lat":55.9188124239,"lon":-3.2649661478,"name":"Kingsknowe"},{"crs":"TNA","lat":53.6543008096,"lon":-0.3230214804,"name":"Thornton Abbey"},{"crs":"LRD","lat":51.2406479045,"lon":-0.5650689528,"name":"London Road (Guildford)"},{"crs":"BAL","lat":51.443223013,"lon":-0.1524244891,"name":"Balham"},{"crs":"FRH","lat":50.9015,"lon":1.81152,"name":"Calais Frethun"},{"crs":"WAC","lat":53.3918144894,"lon":-2.5931682922,"name":"Warrington Central"},{"crs":"GMV","lat":52.1091969692,"lon":-2.3182708081,"name":"Great Malvern"},{"crs":"XEK","lat":0.0,"lon":0.0,"name":"Moretonhampstead (Bus)"},{"crs":"MNC","lat":56.2010145348,"lon":-3.1307868475,"name":"Markinch"},{"crs":"WRT","lat":52.7774239906,"lon":1.4040812301,"name":"Worstead"},{"crs":"EBB","lat":51.7766861492,"lon":-3.2025768817,"name":"Ebbw Vale Town"},{"crs":"MEL","lat":52.090714878,"lon":0.008941215,"name":"Meldreth"},{"crs":"BYB","lat":52.9681406299,"lon":-2.0669611117,"name":"Blythe Bridge"},{"crs":"LOT","lat":53.5729255318,"lon":-2.4942660807,"name":"Lostock"},{"crs":"CNM","lat":51.8973956026,"lon":-2.0996199573,"name":"Cheltenham Spa"},{"crs":"FZH","lat":53.8203683832,"lon":-1.7690010709,"name":"Frizinghall"},{"crs":"TVA","lat":0.0,"lon":0.0,"name":"Tees Valley Airport (Bus)"},{"crs":"LLJ","lat":53.283942076,"lon":-3.8091017849,"name":"Llandudno Junction"},{"crs":"UPM","lat":51.5591061979,"lon":0.2508839248,"name":"Upminster"},{"crs":"DBC","lat":55.9466536596,"lon":-4.5669205124,"name":"Dumbarton Central"},{"crs":"STT","lat":55.6821525209,"lon":-4.5180574623,"name":"Stewarton"},{"crs":"DBE","lat":55.942245671,"lon":-4.5541366397,"name":"Dumbarton East"},{"crs":"TYS","lat":52.4541148841,"lon":-1.8391160057,"name":"Tyseley"},{"crs":"DNS","lat":51.4316624716,"lon":-3.2183515115,"name":"Dinas Powys"},{"crs":"DEE","lat":56.4564851616,"lon":-2.9712045352,"name":"Dundee"},{"crs":"LDY","lat":56.2737806658,"lon":-3.1222751376,"name":"Ladybank"},{"crs":"PBY","lat":51.683525611,"lon":-4.2478410534,"name":"Pembrey & Burry Port"},{"crs":"GMD","lat":53.5743196898,"lon":-0.075617282,"name":"Grimsby Docks"},{"crs":"KEI","lat":53.8679612961,"lon":-1.9016494846,"name":"Keighley"},{"crs":"BIP","lat":50.7801415996,"lon":0.0827569275,"name":"Bishopstone"},{"crs":"SFO","lat":51.5143616296,"lon":0.4230357516,"name":"Stanford-le-Hope"},{"crs":"BYF","lat":56.4671594892,"lon":-2.8731522873,"name":"Broughty Ferry"},{"crs":"MYH","lat":55.8976295552,"lon":-4.3007450236,"name":"Maryhill"},{"crs":"DRM","lat":56.0051216528,"lon":-2.786047812,"name":"Drem"},{"crs":"XBW","lat":0.0,"lon":0.0,"name":"Minehead Bancks Street (Bus)"},{"crs":"NBE","lat":51.6658136941,"lon":-3.1428851096,"name":"Newbridge"},{"crs":"WSF","lat":53.1905097045,"lon":-2.494599315,"name":"Winsford"},{"crs":"THD","lat":51.3890951848,"lon":-0.339152176,"name":"Thames Ditton"},{"crs":"HMM","lat":53.9963282251,"lon":-1.2840955875,"name":"Hammerton"},{"crs":"HOR","lat":51.1687734476,"lon":-0.1610535773,"name":"Horley"},{"crs":"BLY","lat":51.9953327008,"lon":-0.7363204708,"name":"Bletchley"},{"crs":"ARU","lat":50.848213004,"lon":-0.5461742763,"name":"Arundel"},{"crs":"FNB","lat":51.2966035757,"lon":-0.7557256872,"name":"Farnborough (Main)"},{"crs":"CGW","lat":53.1078614762,"lon":-3.0329127323,"name":"Caergwrle"},{"crs":"MAO","lat":51.4074098754,"lon":-0.7243966507,"name":"Martins Heron"},{"crs":"OXT","lat":51.2579063373,"lon":-0.0048335753,"name":"Oxted"},{"crs":"PAT","lat":53.4847757347,"lon":-2.3582446329,"name":"Patricroft"},{"crs":"GMB","lat":53.5634266247,"lon":-0.0869839464,"name":"Grimsby Town"},{"crs":"TUR","lat":51.6726262147,"lon":-0.0472166329,"name":"Turkey Street"},{"crs":"XDH","lat":0.0,"lon":0.0,"name":"Wells (Bus)"},{"crs":"XBR","lat":0.0,"lon":0.0,"name":"Midsomer Norton (Bus)"},{"crs":"TAF","lat":51.5408026179,"lon":-3.262937842,"name":"Taffs Well"},{"crs":"LTN","lat":51.8724357548,"lon":-0.3958810013,"name":"Luton Airport Parkway"},{"crs":"XDO","lat":0.0,"lon":0.0,"name":"Bath Bus Station"},{"crs":"CHM","lat":51.7363706755,"lon":0.4685721,"name":"Chelmsford"},{"crs":"FLW","lat":51.4339332875,"lon":-0.3494675954,"name":"Fulwell"},{"crs":"HTW","lat":55.8114795408,"lon":-3.8393218321,"name":"Hartwood"},{"crs":"PNZ","lat":50.1216715468,"lon":-5.5325651332,"name":"Penzance"},{"crs":"WDE","lat":52.3436784363,"lon":-1.8442137068,"name":"Wood End"},{"crs":"GCW","lat":53.267419712,"lon":-3.7977273362,"name":"Glan Conwy"},{"crs":"HOV","lat":50.835214477,"lon":-0.1706873919,"name":"Hove"},{"crs":"TRH","lat":51.6101489353,"lon":-3.3809745096,"name":"Trehafod"},{"crs":"WTE","lat":52.3918300351,"lon":-1.8515388432,"name":"Whitlocks End"},{"crs":"DLJ","lat":51.5461137639,"lon":-0.0751375662,"name":"Dalston Junction"},{"crs":"VIR","lat":51.4018003714,"lon":-0.5621738254,"name":"Virginia Water"},{"crs":"ASP","lat":54.7589545762,"lon":-3.3318735576,"name":"Aspatria"},{"crs":"LPT","lat":53.0418800933,"lon":-2.2164478446,"name":"Longport"},{"crs":"LWS","lat":50.87063011,"lon":0.0113305214,"name":"Lewes"},{"crs":"EWD","lat":52.3665794821,"lon":-1.8611694938,"name":"Earlswood (West Midlands)"},{"crs":"WAN","lat":51.2445214839,"lon":-0.6675877676,"name":"Wanborough"},{"crs":"BTO","lat":51.2481873594,"lon":-0.266973006,"name":"Betchworth"},{"crs":"FLN","lat":53.249522425,"lon":-3.1329930795,"name":"Flint"},{"crs":"BUK","lat":52.3573772153,"lon":-2.9473778068,"name":"Bucknell"},{"crs":"LLM","lat":52.1142966246,"lon":-3.5548165204,"name":"Llangammarch"},{"crs":"CNG","lat":53.1578526524,"lon":-2.1925799855,"name":"Congleton"},{"crs":"WMN","lat":51.2067748699,"lon":-2.1767340349,"name":"Warminster"},{"crs":"MTL","lat":51.4680849882,"lon":-0.2671056424,"name":"Mortlake"},{"crs":"BWT","lat":51.127854579,"lon":-2.9904054461,"name":"Bridgwater"},{"crs":"BRT","lat":52.9428705194,"lon":-2.1681111082,"name":"Barlaston"},{"crs":"MNP","lat":51.5524747646,"lon":0.046341541,"name":"Manor Park"},{"crs":"ESL","lat":50.9692484247,"lon":-1.3500844831,"name":"Eastleigh"},{"crs":"SHO","lat":50.8967518731,"lon":-1.3649149688,"name":"Sholing"},{"crs":"EGT","lat":54.4374797985,"lon":-0.7614649286,"name":"Egton"},{"crs":"HDH","lat":51.5552083277,"lon":-0.1657054168,"name":"Hampstead Heath"},{"crs":"WCP","lat":51.3812507102,"lon":-0.2451673022,"name":"Worcester Park"},{"crs":"RMK","lat":0.0,"lon":0.0,"name":"Richmond, Nth Yorks (Bus)"},{"crs":"ISP","lat":51.8257515481,"lon":-1.2381816701,"name":"Islip"},{"crs":"TPB","lat":51.5375683704,"lon":0.7617279575,"name":"Thorpe Bay"},{"crs":"CRH","lat":51.5713000186,"lon":-0.1171488137,"name":"Crouch Hill"},{"crs":"TBW","lat":51.1302319885,"lon":0.2628103117,"name":"Tunbridge Wells"},{"crs":"GLE","lat":56.2748486275,"lon":-3.7311679053,"name":"Gleneagles"},{"crs":"KSW","lat":54.4548554321,"lon":-2.3685965879,"name":"Kirkby Stephen"},{"crs":"ALW","lat":54.5246211884,"lon":-1.3611167227,"name":"Allens West"},{"crs":"DMG","lat":51.6178321803,"lon":-3.4375410435,"name":"Dinas Rhondda"},{"crs":"BSR","lat":51.3606724272,"lon":1.4335605582,"name":"Broadstairs"},{"crs":"XEE","lat":0.0,"lon":0.0,"name":"Holsworthy (Bus)"},{"crs":"WEM","lat":52.856407713,"lon":-2.7180168679,"name":"Wem"},{"crs":"CSN","lat":51.3640392262,"lon":-0.3006991277,"name":"Chessington North"},{"crs":"HRD","lat":52.4536878325,"lon":0.9091422879,"name":"Harling Road"},{"crs":"AUI","lat":56.3019654533,"lon":-4.7216573211,"name":"Ardlui"},{"crs":"ERI","lat":51.0889636958,"lon":0.2014317213,"name":"Eridge"},{"crs":"APD","lat":51.0332351825,"lon":0.8163415506,"name":"Appledore (Kent)"},{"crs":"DHN","lat":53.6684809728,"lon":-1.7518964098,"name":"Deighton"},{"crs":"GLG","lat":55.7388861927,"lon":-4.6745016025,"name":"Glengarnock"},{"crs":"MLH","lat":53.7354563572,"lon":-2.5017353112,"name":"Mill Hill (Lancashire)"},{"crs":"WRP","lat":52.286101606,"lon":-1.6120578528,"name":"Warwick Parkway"},{"crs":"GOF","lat":56.4977930391,"lon":-2.7195435006,"name":"Golf Street"},{"crs":"CHY","lat":51.387067052,"lon":-0.5093166065,"name":"Chertsey"},{"crs":"WOK","lat":51.3184675461,"lon":-0.5569596795,"name":"Woking"},{"crs":"LLE","lat":51.6738647652,"lon":-4.1613034118,"name":"Llanelli"},{"crs":"MYB","lat":51.5225220279,"lon":-0.1629108999,"name":"London Marylebone"},{"crs":"WIL","lat":52.8536431717,"lon":-1.5633605394,"name":"Willington"},{"crs":"WIJ","lat":51.532494772,"lon":-0.2445478846,"name":"Willesden Junction"},{"crs":"BME","lat":52.4227698824,"lon":-2.8852074714,"name":"Broome"},{"crs":"CAM","lat":51.3363258371,"lon":-0.7442716834,"name":"Camberley"},{"crs":"SRT","lat":51.4057988529,"lon":0.0017840279,"name":"Shortlands"},{"crs":"SOP","lat":53.6465174948,"lon":-3.0024347132,"name":"Southport"},{"crs":"TYB","lat":52.95436896,"lon":-4.0115152824,"name":"Tan-y-Bwlch  (Bus)"},{"crs":"ENC","lat":51.6532522222,"lon":-0.0906963655,"name":"Enfield Chase"},{"crs":"BEB","lat":53.3576521977,"lon":-3.0036346408,"name":"Bebington"},{"crs":"LGW","lat":54.6943558637,"lon":-2.6636836728,"name":"Langwathby"},{"crs":"WSE","lat":50.9337638551,"lon":0.7022616616,"name":"Winchelsea"},{"crs":"BFR","lat":51.5118078639,"lon":-0.1033320671,"name":"London Blackfriars"},{"crs":"HOD","lat":0.0,"lon":0.0,"name":"Hollinwood"},{"crs":"SCT","lat":58.4829906215,"lon":-3.5520497921,"name":"Scotscalder"},{"crs":"RUG","lat":52.3790927741,"lon":-1.2504844057,"name":"Rugby"},{"crs":"SRS","lat":51.3919255681,"lon":-0.0882999732,"name":"Selhurst"},{"crs":"MLF","lat":51.1633174711,"lon":-0.6369483542,"name":"Milford (Surrey)"},{"crs":"PNA","lat":51.6589173877,"lon":-4.7220549564,"name":"Penally"},{"crs":"STU","lat":51.3010668622,"lon":1.1222552817,"name":"Sturry"},{"crs":"TWB","lat":55.6057404262,"lon":-2.7595311315,"name":"Tweedbank"},{"crs":"YSM","lat":51.6409325819,"lon":-3.2412953197,"name":"Ystrad Mynach"},{"crs":"JEQ","lat":52.4894329856,"lon":-1.9132127551,"name":"Jewellery Quarter"},{"crs":"PTW","lat":55.5016962071,"lon":-4.6151562309,"name":"Prestwick Town"},{"crs":"EBK","lat":51.4376336213,"lon":-3.2061373871,"name":"Eastbrook"},{"crs":"PER","lat":51.6699204179,"lon":-3.359943645,"name":"Penrhiwceiber"},{"crs":"CWM","lat":51.6565841913,"lon":-3.016203304,"name":"Cwmbran"},{"crs":"ING","lat":56.4564725287,"lon":-3.0573977003,"name":"Invergowrie"},{"crs":"RBS","lat":54.6098879672,"lon":-1.1126612048,"name":"British Steel Redcar"},{"crs":"HLG","lat":52.436907691,"lon":-1.8456508656,"name":"Hall Green"},{"crs":"LSN","lat":55.9013825691,"lon":-3.5443508186,"name":"Livingston North"},{"crs":"RML","lat":53.4140101376,"lon":-2.0893264854,"name":"Romiley"},{"crs":"BUU","lat":51.6336557474,"lon":0.8140278288,"name":"Burnham-on-Crouch"},{"crs":"ZBC","lat":51.49031,"lon":-0.2134,"name":"Barons Court Underground"},{"crs":"CPN","lat":51.0165333093,"lon":-4.0247218124,"name":"Chapleton"},{"crs":"ROG","lat":57.9887119879,"lon":-4.1581849331,"name":"Rogart"},{"crs":"LVG","lat":55.8716919304,"lon":-3.5015691141,"name":"Livingston South"},{"crs":"HTC","lat":53.4255582903,"lon":-2.179041506,"name":"Heaton Chapel"},{"crs":"KGN","lat":50.9360721937,"lon":-3.9054106329,"name":"Kings Nympton"},{"crs":"LCC","lat":57.6217562265,"lon":-4.809048773,"name":"Lochluichart"},{"crs":"DCG","lat":57.3370007225,"lon":-5.6371305663,"name":"Duncraig"},{"crs":"TOD","lat":53.7138161001,"lon":-2.099659169,"name":"Todmorden"},{"crs":"WEA","lat":51.5135036803,"lon":-0.3201332744,"name":"West Ealing"},{"crs":"SOK","lat":51.5702121437,"lon":-0.3084624372,"name":"South Kenton"},{"crs":"SLA","lat":55.926687214,"lon":-3.2434565047,"name":"Slateford"},{"crs":"HLC","lat":56.0042069028,"lon":-4.7327577534,"name":"Helensburgh Central"},{"crs":"LGJ","lat":51.4662957773,"lon":-0.1021820779,"name":"Loughborough Junction"},{"crs":"PWC","lat":0.0,"lon":0.0,"name":"Prestwich Metrolink (Bus)"},{"crs":"HED","lat":53.3644776716,"lon":-2.830133899,"name":"Halewood"},{"crs":"ATH","lat":52.5789695378,"lon":-1.5528113309,"name":"Atherstone"},{"crs":"EYN","lat":51.3627184195,"lon":0.2043931293,"name":"Eynsford"},{"crs":"SOT","lat":53.0079784364,"lon":-2.1809873296,"name":"Stoke-on-Trent"},{"crs":"CAC","lat":55.8879418581,"lon":-3.8877110445,"name":"Caldercruix"},{"crs":"SRC","lat":51.4187280175,"lon":-0.1360098494,"name":"Streatham Common"},{"crs":"WIS","lat":0.0,"lon":0.0,"name":"Wisbech Horsefair (Bus)"},{"crs":"MSO","lat":53.523418387,"lon":-2.171022833,"name":"Moston"},{"crs":"BEU","lat":50.8550468575,"lon":-1.5047494907,"name":"Beaulieu Road"},{"crs":"XSK","lat":0.0,"lon":0.0,"name":"Southampton Western Docks"},{"crs":"ZBK","lat":51.5393,"lon":0.0817,"name":"Barking Underground"},{"crs":"BNR","lat":54.9595425953,"lon":-1.4613532752,"name":"Brockley Whins (T & W Metro)"},{"crs":"FLS","lat":0.0,"lon":0.0,"name":"Failsworth"},{"crs":"LOH","lat":53.7242428144,"lon":-2.6874833199,"name":"Lostock Hall"},{"crs":"MIL","lat":51.6130909542,"lon":-0.2492397128,"name":"Mill Hill Broadway"},{"crs":"OHL","lat":52.4709318372,"lon":-2.0561906629,"name":"Old Hill"},{"crs":"BDW","lat":51.3796383166,"lon":-1.5987861169,"name":"Bedwyn"},{"crs":"PMA","lat":50.9570001805,"lon":-3.9505794005,"name":"Portsmouth Arms"},{"crs":"WHC","lat":51.5829168686,"lon":-0.0198150231,"name":"Walthamstow Central"},{"crs":"KDY","lat":56.1120571512,"lon":-3.1670283175,"name":"Kirkcaldy"},{"crs":"FAZ","lat":53.4690831278,"lon":-2.9367231924,"name":"Fazakerley"},{"crs":"GLC","lat":55.8597547903,"lon":-4.2576432357,"name":"Glasgow Central"},{"crs":"HLU","lat":56.0123620134,"lon":-4.7298039494,"name":"Helensburgh Upper"},{"crs":"LTG","lat":53.2676630428,"lon":-2.4652029707,"name":"Lostock Gralam"},{"crs":"DLK","lat":51.5481463247,"lon":-0.0757008214,"name":"Dalston Kingsland"},{"crs":"MTN","lat":50.7010289948,"lon":-2.3134496593,"name":"Moreton (Dorset)"},{"crs":"EBL","lat":54.9464135866,"lon":-1.4203139194,"name":"East Boldon (T & W Metro)"},{"crs":"CYN","lat":52.0514960064,"lon":-3.7482105026,"name":"Cynghordy"},{"crs":"CHT","lat":55.5367316854,"lon":-1.706375147,"name":"Chathill"},{"crs":"HPT","lat":52.3914141502,"lon":-2.9120595834,"name":"Hopton Heath"},{"crs":"ALO","lat":56.1177881922,"lon":-3.7900555863,"name":"Alloa"},{"crs":"PMS","lat":50.7984935944,"lon":-1.0909110479,"name":"Portsmouth & Southsea"},{"crs":"CON","lat":56.4523514628,"lon":-5.3854408424,"name":"Connel Ferry"},{"crs":"WNC","lat":51.483266127,"lon":-0.6103799247,"name":"Windsor & Eton Central"},{"crs":"BET","lat":51.523915396,"lon":-0.0595680409,"name":"Bethnal Green"},{"crs":"SST","lat":51.9014364405,"lon":0.1997808745,"name":"Stansted Mountfitchet"},{"crs":"ESH","lat":51.3798892738,"lon":-0.3533378262,"name":"Esher"},{"crs":"XBD","lat":0.0,"lon":0.0,"name":"Lyneham Camp (Bus)"},{"crs":"CSS","lat":51.3565484766,"lon":-0.3081575637,"name":"Chessington South"},{"crs":"CSL","lat":52.6272863895,"lon":-2.2017628137,"name":"Codsall"},{"crs":"CPA","lat":56.8428259132,"lon":-5.1219564408,"name":"Corpach"},{"crs":"HGF","lat":53.5338505594,"lon":-2.4948215406,"name":"Hag Fold"},{"crs":"SRD","lat":51.4675050695,"lon":-2.5662168285,"name":"Stapleton Road"},{"crs":"BSJ","lat":52.1294763717,"lon":-0.4675010106,"name":"Bedford St Johns"},{"crs":"RYB","lat":56.8883631791,"lon":-4.837242052,"name":"Roy Bridge"},{"crs":"DMP","lat":51.3456973724,"lon":1.4258186363,"name":"Dumpton Park"},{"crs":"LYT","lat":50.7609104669,"lon":-1.537161991,"name":"Lymington Town"},{"crs":"WHE","lat":53.8240154954,"lon":-2.4122529909,"name":"Whalley"},{"crs":"HKC","lat":51.5471030756,"lon":-0.0560576096,"name":"Hackney Central"},{"crs":"HYC","lat":53.4518817178,"lon":-2.0852501323,"name":"Hyde Central"},{"crs":"PEW","lat":51.3421913934,"lon":-1.7706752147,"name":"Pewsey"},{"crs":"AHN","lat":53.4912712734,"lon":-2.0943122736,"name":"Ashton-under-Lyne"},{"crs":"PRW","lat":50.2165771122,"lon":-5.1120691106,"name":"Perranwell"},{"crs":"CKL","lat":54.5416776705,"lon":-3.5821639938,"name":"Corkickle"},{"crs":"DOD","lat":53.5443231079,"lon":-1.5316907395,"name":"Dodworth"},{"crs":"WTA","lat":55.9143167564,"lon":-3.2843391469,"name":"Wester Hailes"},{"crs":"PAW","lat":54.9527,"lon":-1.5414,"name":"Pelaw (T & W Metro)"},{"crs":"WBE","lat":0.0,"lon":0.0,"name":"Wadebridge Bus Station"},{"crs":"AYP","lat":51.4354507421,"lon":0.1257370726,"name":"Albany Park"},{"crs":"NEW","lat":55.9331203897,"lon":-3.0908433697,"name":"Newcraighall"},{"crs":"ORE","lat":50.8669465057,"lon":0.5915678864,"name":"Ore"},{"crs":"CTB","lat":0.0,"lon":0.0,"name":"Castlebay, Barra (Bus)"},{"crs":"HAS","lat":52.3468142416,"lon":1.5056673865,"name":"Halesworth"},{"crs":"KWG","lat":51.4770715054,"lon":-0.2850535828,"name":"Kew Gardens"},{"crs":"SIR","lat":0.0,"lon":0.0,"name":"Private Charter"},{"crs":"EXG","lat":55.861549701,"lon":-4.2835886821,"name":"Exhibition Centre"},{"crs":"HIL","lat":53.6221044512,"lon":-3.024716344,"name":"Hillside"},{"crs":"MPL","lat":53.4006908816,"lon":-2.0572633096,"name":"Marple"},{"crs":"SDA","lat":51.3302287223,"lon":0.4482412398,"name":"Snodland"},{"crs":"BKA","lat":51.2887368294,"lon":-0.3840206713,"name":"Bookham"},{"crs":"BNT","lat":53.4321148476,"lon":-2.1351198799,"name":"Brinnington"},{"crs":"HKW","lat":51.5434085903,"lon":-0.0249198513,"name":"Hackney Wick"},{"crs":"ACR","lat":53.7529695767,"lon":-2.3695477702,"name":"Accrington"},{"crs":"QRP","lat":51.4735643468,"lon":-0.0573135677,"name":"Queens Road Peckham"},{"crs":"MDG","lat":51.3959731662,"lon":-1.1777111832,"name":"Midgham"},{"crs":"MUK","lat":0.0,"lon":0.0,"name":"Muck (Bus)"},{"crs":"BAW","lat":51.3315798051,"lon":-0.7767409866,"name":"Blackwater"},{"crs":"MEX","lat":53.4909906779,"lon":-1.2885613401,"name":"Mexborough"},{"crs":"ADK","lat":53.471342264,"lon":-2.2138838842,"name":"Ardwick"},{"crs":"DNY","lat":54.466151645,"lon":-0.9109557967,"name":"Danby"},{"crs":"GXX","lat":0.0,"lon":0.0,"name":"Gourock Pier (Bus)"},{"crs":"HIN","lat":53.5422351079,"lon":-2.5755016317,"name":"Hindley"},{"crs":"PYG","lat":55.8473483417,"lon":-4.4245063203,"name":"Paisley Gilmour Street"},{"crs":"PRA","lat":55.5090341306,"lon":-4.6141699822,"name":"Prestwick Intl Airport"},{"crs":"DDP","lat":52.52464969,"lon":-2.0494795544,"name":"Dudley Port"},{"crs":"NMK","lat":52.2379422315,"lon":0.4062082566,"name":"Newmarket"},{"crs":"KGL","lat":51.7063540733,"lon":-0.4384219336,"name":"Kings Langley"},{"crs":"MLN","lat":55.9413640724,"lon":-4.3145803314,"name":"Milngavie"},{"crs":"FML","lat":51.3118601939,"lon":-0.7469913273,"name":"Frimley"},{"crs":"NTR","lat":54.3330704332,"lon":-1.4412730148,"name":"Northallerton"},{"crs":"SDW","lat":51.269901433,"lon":1.3425680679,"name":"Sandwich"},{"crs":"BBW","lat":53.6210390942,"lon":-1.7934320912,"name":"Berry Brow"},{"crs":"DID","lat":51.6109526281,"lon":-1.2428934667,"name":"Didcot Parkway"},{"crs":"SOG","lat":51.0199657316,"lon":0.363868128,"name":"Stonegate"},{"crs":"LHR","lat":0.0,"lon":0.0,"name":"Heathrow Airport (Bus)"},{"crs":"HAI","lat":51.3524758524,"lon":0.4449317874,"name":"Halling"},{"crs":"PWL","lat":52.8878325058,"lon":-4.4166974246,"name":"Pwllheli"},{"crs":"WCF","lat":51.5373314868,"lon":0.6914658883,"name":"Westcliff"},{"crs":"HGG","lat":51.5387035946,"lon":-0.0756665454,"name":"Haggerston"},{"crs":"CMR","lat":52.930082308,"lon":1.2928244096,"name":"Cromer"},{"crs":"ALX","lat":55.9850819491,"lon":-4.577484177,"name":"Alexandria"},{"crs":"XAA","lat":0.0,"lon":0.0,"name":"Galashiels (Bus)"},{"crs":"COO","lat":51.557460949,"lon":-0.722079038,"name":"Cookham"},{"crs":"MRS","lat":51.7357605861,"lon":-0.8293336932,"name":"Monks Risborough"},{"crs":"YRT","lat":52.8089553734,"lon":-2.7364610874,"name":"Yorton"},{"crs":"BEN","lat":54.1155156893,"lon":-2.5106761381,"name":"Bentham"},{"crs":"GOB","lat":52.8935131156,"lon":-3.0371725416,"name":"Gobowen"},{"crs":"HAL","lat":53.3787159637,"lon":-2.3473567529,"name":"Hale"},{"crs":"CAY","lat":55.8548715019,"lon":-4.1785721499,"name":"Carntyne"},{"crs":"SSF","lat":0.0,"lon":0.0,"name":"Seaton, Devon (Bus)"},{"crs":"BUI","lat":55.816925075,"lon":-4.202389324,"name":"Burnside"},{"crs":"SEL","lat":54.4165836037,"lon":-3.5104564274,"name":"Sellafield"},{"crs":"YRD","lat":52.4215008184,"lon":-1.8543803044,"name":"Yardley Wood"},{"crs":"CHN","lat":51.7028743173,"lon":-0.0239597194,"name":"Cheshunt"},{"crs":"HFX","lat":53.7209590848,"lon":-1.8535747289,"name":"Halifax"},{"crs":"ELD","lat":51.2273265908,"lon":-0.1708230619,"name":"Earlswood (Surrey)"},{"crs":"HNY","lat":0.0,"lon":0.0,"name":"Hanley (Bus)"},{"crs":"TOK","lat":50.9011133824,"lon":0.6130509716,"name":"Three Oaks"},{"crs":"PBN","lat":48.8809,"lon":2.3553,"name":"Paris Nord"},{"crs":"TED","lat":51.4244788514,"lon":-0.3327059798,"name":"Teddington"},{"crs":"HKM","lat":53.1950033337,"lon":-0.6001964539,"name":"Hykeham"},{"crs":"GRS","lat":55.8876934107,"lon":-4.365004453,"name":"Garscadden"},{"crs":"DSL","lat":53.3581810628,"lon":-2.0424815232,"name":"Disley"},{"crs":"HDE","lat":50.9323177961,"lon":-1.29450335,"name":"Hedge End"},{"crs":"BNP","lat":51.0739676174,"lon":-4.0631167811,"name":"Barnstaple"},{"crs":"KNS","lat":55.8133144919,"lon":-4.3252461012,"name":"Kennishead"},{"crs":"LAK","lat":52.4473987603,"lon":0.5351976282,"name":"Lakenheath"},{"crs":"TUH","lat":51.4398593027,"lon":-0.1050767615,"name":"Tulse Hill"},{"crs":"BSY","lat":51.5451638454,"lon":-0.2023087266,"name":"Brondesbury"},{"crs":"FOX","lat":54.2586662987,"lon":-3.2160614709,"name":"Foxfield"},{"crs":"SHR","lat":52.711926768,"lon":-2.749761145,"name":"Shrewsbury"},{"crs":"WMG","lat":51.7363503338,"lon":-0.2106917452,"name":"Welham Green"},{"crs":"HLF","lat":55.9200913019,"lon":-4.3202741007,"name":"Hillfoot"},{"crs":"PMR","lat":51.4700322782,"lon":-0.0694144076,"name":"Peckham Rye"},{"crs":"PDK","lat":0.0,"lon":0.0,"name":"Pembroke Dock Ferry Term"},{"crs":"SGR","lat":51.4677842283,"lon":0.1904913461,"name":"Slade Green"},{"crs":"FRE","lat":53.5660514878,"lon":-3.0718293947,"name":"Freshfield"},{"crs":"SDG","lat":51.0903685629,"lon":1.0660427704,"name":"Sandling"},{"crs":"DMR","lat":55.9119280557,"lon":-4.4266808364,"name":"Dalmuir"},{"crs":"TRF","lat":51.5914604149,"lon":-3.3251177492,"name":"Trefforest"},{"crs":"LZB","lat":54.7504351579,"lon":-2.7032085934,"name":"Lazonby & Kirkoswald"},{"crs":"KCK","lat":51.3457876294,"lon":0.1308470607,"name":"Knockholt"},{"crs":"LLW","lat":52.6667796265,"lon":-4.0876788839,"name":"Llwyngwril"},{"crs":"DCT","lat":51.5005040804,"lon":-3.2339167786,"name":"Danescourt"},{"crs":"HRM","lat":51.2448308137,"lon":0.6723993422,"name":"Harrietsham"},{"crs":"WCM","lat":52.1510979789,"lon":1.3986801343,"name":"Wickham Market"},{"crs":"FEA","lat":53.6790647252,"lon":-1.3584441327,"name":"Featherstone"},{"crs":"HNH","lat":51.4533031686,"lon":-0.1022891672,"name":"Herne Hill"},{"crs":"MCO","lat":53.4740300662,"lon":-2.2419954068,"name":"Manchester Oxford Road"},{"crs":"LER","lat":51.5635526116,"lon":0.0084163964,"name":"Leytonstone High Road"},{"crs":"XAV","lat":0.0,"lon":0.0,"name":"Helston (Bus)"},{"crs":"RAU","lat":52.985202797,"lon":-0.4566061907,"name":"Rauceby"},{"crs":"HMW","lat":51.4145226518,"lon":-0.3124895284,"name":"Hampton Wick"},{"crs":"SJS","lat":51.5809790402,"lon":-0.0329184538,"name":"St James Street"},{"crs":"TEA","lat":54.5181309448,"lon":-1.4253114371,"name":"Tees-side Airport"},{"crs":"CUL","lat":0.0,"lon":0.0,"name":"Cumbrae Slip (Bus)"},{"crs":"LNR","lat":51.9625848944,"lon":-3.8716737984,"name":"Llanwrda"},{"crs":"BEE","lat":52.9207531433,"lon":-1.2076579249,"name":"Beeston"},{"crs":"MTV","lat":55.8402005981,"lon":-4.1336691285,"name":"Mount Vernon"},{"crs":"BSV","lat":53.6733393762,"lon":-2.6608298529,"name":"Buckshaw Parkway"},{"crs":"DAL","lat":56.4011880792,"lon":-4.9835520102,"name":"Dalmally"},{"crs":"KTN","lat":51.5504930446,"lon":-0.1403649822,"name":"Kentish Town"},{"crs":"TRA","lat":53.4548156067,"lon":-2.310631118,"name":"Trafford Park"},{"crs":"AMB","lat":53.0605146838,"lon":-1.4806974499,"name":"Ambergate"},{"crs":"GOX","lat":53.6767009798,"lon":-0.3371204815,"name":"Goxhill"},{"crs":"PLT","lat":51.7466301709,"lon":-3.2789558165,"name":"Pontlottyn"},{"crs":"ATT","lat":57.3950356294,"lon":-5.455577,"name":"Attadale"},{"crs":"POK","lat":50.7310860844,"lon":-1.825102061,"name":"Pokesdown"},{"crs":"STI","lat":54.9182,"lon":-1.3829,"name":"Stadium of Light (T & W Metro)"},{"crs":"HOO","lat":53.297197164,"lon":-2.9770092553,"name":"Hooton"},{"crs":"KGS","lat":52.0213496148,"lon":-1.2809305795,"name":"Kings Sutton"},{"crs":"KTW","lat":51.5465459813,"lon":-0.1466555103,"name":"Kentish Town West"},{"crs":"ZPC","lat":51.5101,"lon":-0.134,"name":"Piccadilly Circus Underground"},{"crs":"UTT","lat":52.8967893034,"lon":-1.8572546363,"name":"Uttoxeter"},{"crs":"BLH","lat":55.8170622869,"lon":-4.024499036,"name":"Bellshill"},{"crs":"BGA","lat":52.6234410636,"lon":1.4184162497,"name":"Brundall Gardens"},{"crs":"XAP","lat":0.0,"lon":0.0,"name":"Dartmouth (Bus)"},{"crs":"PRT","lat":53.3364959014,"lon":-3.4071316897,"name":"Prestatyn"},{"crs":"CPT","lat":51.561642061,"lon":-0.0570246519,"name":"Clapton"},{"crs":"LET","lat":51.9799621793,"lon":-0.229264153,"name":"Letchworth Garden City"},{"crs":"PSN","lat":51.4333176614,"lon":-2.6077415497,"name":"Parson Street"},{"crs":"PNE","lat":51.4193320438,"lon":-0.0542205305,"name":"Penge East"},{"crs":"NFD","lat":52.4081901144,"lon":-1.965851441,"name":"Northfield"},{"crs":"LTV","lat":52.6868923797,"lon":-1.8002289023,"name":"Lichfield Trent Valley"},{"crs":"CBG","lat":52.1940653874,"lon":0.137456468,"name":"Cambridge"},{"crs":"NPD","lat":53.804482275,"lon":-1.6807923189,"name":"New Pudsey"},{"crs":"ETL","lat":51.4848293828,"lon":0.4129277981,"name":"East Tilbury"},{"crs":"SNI","lat":53.6931124085,"lon":-1.0284597678,"name":"Snaith"},{"crs":"AVN","lat":51.5003604314,"lon":-2.6994660879,"name":"Avonmouth"},{"crs":"TEN","lat":51.672942788,"lon":-4.7066958506,"name":"Tenby"},{"crs":"PTG","lat":55.9335137049,"lon":-4.6898256435,"name":"Port Glasgow"},{"crs":"SPF","lat":56.2949693991,"lon":-3.0524480742,"name":"Springfield"},{"crs":"TBD","lat":51.1169218787,"lon":-0.1611840761,"name":"Three Bridges"},{"crs":"SLD","lat":53.4865856697,"lon":-2.2757492966,"name":"Salford Crescent"},{"crs":"GOE","lat":53.5341877588,"lon":-1.3128076811,"name":"Goldthorpe"},{"crs":"SMY","lat":51.394747407,"lon":0.106383593,"name":"St Mary Cray"},{"crs":"DBY","lat":52.9165462053,"lon":-1.4633546511,"name":"Derby"},{"crs":"HXX","lat":51.4714038704,"lon":-0.4543326813,"name":"Heathrow Airport T123"},{"crs":"THO","lat":50.9105744804,"lon":-2.5789871713,"name":"Thornford"},{"crs":"PRE","lat":53.756857747,"lon":-2.7081278479,"name":"Preston"},{"crs":"KWN","lat":55.6559497958,"lon":-4.7100185395,"name":"Kilwinning"},{"crs":"HWH","lat":54.9678476422,"lon":-2.4635649615,"name":"Haltwhistle"},{"crs":"CNN","lat":51.5487303816,"lon":-0.0921909239,"name":"Canonbury"},{"crs":"BOH","lat":50.8427458319,"lon":-0.8474311894,"name":"Bosham"},{"crs":"OPK","lat":53.4618963161,"lon":-2.9633154376,"name":"Orrell Park"},{"crs":"BDB","lat":53.4409721522,"lon":-2.0165207754,"name":"Broadbottom"},{"crs":"XEO","lat":0.0,"lon":0.0,"name":"Porthcawl (Bus)"},{"crs":"LCK","lat":53.6347316339,"lon":-1.800790756,"name":"Lockwood"},{"crs":"NFL","lat":51.4458443886,"lon":0.3243334785,"name":"Northfleet"},{"crs":"TNP","lat":51.6197610287,"lon":-3.4488691791,"name":"Tonypandy"},{"crs":"FOC","lat":56.3938818514,"lon":-5.1124776441,"name":"Falls of Cruachan"},{"crs":"HYM","lat":55.9458067732,"lon":-3.2184494233,"name":"Haymarket"},{"crs":"HIT","lat":51.9532807162,"lon":-0.2634808344,"name":"Hitchin"},{"crs":"CLE","lat":53.5619043562,"lon":-0.0292209246,"name":"Cleethorpes"},{"crs":"PAL","lat":51.6183124528,"lon":-0.1104366365,"name":"Palmers Green"},{"crs":"ARD","lat":57.8814518584,"lon":-4.3620891886,"name":"Ardgay"},{"crs":"BUS","lat":55.7803381572,"lon":-4.2622006923,"name":"Busby"},{"crs":"EIG","lat":0.0,"lon":0.0,"name":"Eigg (Bus)"},{"crs":"LGE","lat":52.8849860626,"lon":-1.2875205336,"name":"Long Eaton"},{"crs":"TUL","lat":56.8842777088,"lon":-4.7013210351,"name":"Tulloch"},{"crs":"ABD","lat":57.1437035303,"lon":-2.0986851276,"name":"Aberdeen"},{"crs":"BRO","lat":56.5158659767,"lon":-4.7629927304,"name":"Bridge of Orchy"},{"crs":"GCT","lat":53.5757522249,"lon":-0.1302304592,"name":"Great Coates"},{"crs":"INE","lat":53.2766058438,"lon":-2.8165222812,"name":"Ince & Elton"},{"crs":"XEQ","lat":0.0,"lon":0.0,"name":"Radstock (Bus)"},{"crs":"WTT","lat":52.5123777152,"lon":-1.8844345981,"name":"Witton"},{"crs":"SWB","lat":0.0,"lon":0.0,"name":"Swaffham Tourist Inf Ctr (Bus)"},{"crs":"TRS","lat":52.25000132,"lon":0.8086527178,"name":"Thurston"},{"crs":"FNC","lat":51.1971520438,"lon":-0.6045488525,"name":"Farncombe"},{"crs":"EBD","lat":51.4429712479,"lon":0.3209208445,"name":"Ebbsfleet International"},{"crs":"DUR","lat":50.8175260195,"lon":-0.4114686926,"name":"Durrington-on-Sea"},{"crs":"CSA","lat":50.8419223492,"lon":-1.0673287237,"name":"Cosham"},{"crs":"PEG","lat":55.1781278142,"lon":-1.6441657965,"name":"Pegswood"},{"crs":"CEA","lat":55.8046464641,"lon":-3.9102439517,"name":"Cleland"},{"crs":"GCR","lat":51.8655568613,"lon":-2.238487608,"name":"Gloucester"},{"crs":"TAC","lat":51.8812361994,"lon":-1.2975355391,"name":"Tackley"},{"crs":"MFH","lat":51.7149709311,"lon":-5.0409683791,"name":"Milford Haven"},{"crs":"PRY","lat":52.5164838997,"lon":-1.9019600443,"name":"Perry Barr"},{"crs":"RHL","lat":53.318420629,"lon":-3.4891052124,"name":"Rhyl"},{"crs":"THW","lat":52.5053714049,"lon":-1.9640088541,"name":"The Hawthorns"},{"crs":"WTH","lat":54.5530298842,"lon":-3.5869330677,"name":"Whitehaven"},{"crs":"KNG","lat":51.4127494093,"lon":-0.3011657769,"name":"Kingston"},{"crs":"MIK","lat":53.7888351906,"lon":-1.3267931022,"name":"Micklefield"},{"crs":"LRG","lat":58.0018287517,"lon":-4.3998887971,"name":"Lairg"},{"crs":"EPS","lat":51.3343908854,"lon":-0.2687776712,"name":"Epsom"},{"crs":"WBQ","lat":53.3860066629,"lon":-2.6023641536,"name":"Warrington Bank Quay"},{"crs":"CUW","lat":51.8405377622,"lon":-4.7318417052,"name":"Clunderwen"},{"crs":"DTG","lat":53.4493289987,"lon":-1.9702985554,"name":"Dinting"},{"crs":"ACT","lat":51.4062418673,"lon":-0.6758332239,"name":"Ascot"},{"crs":"BID","lat":53.4091348667,"lon":-3.0785605441,"name":"Bidston"},{"crs":"BWG","lat":55.9310781983,"lon":-4.4938414675,"name":"Bowling"},{"crs":"BMP","lat":54.9323887963,"lon":-2.7029471728,"name":"Brampton (Cumbria)"},{"crs":"CLT","lat":51.7940006256,"lon":1.1540916942,"name":"Clacton-on-Sea"},{"crs":"BCH","lat":51.3774903279,"lon":1.3014084627,"name":"Birchington-on-Sea"},{"crs":"XDJ","lat":0.0,"lon":0.0,"name":"Plymouth Saltash Road (Bus)"},{"crs":"BEF","lat":51.5439430558,"lon":0.5617133707,"name":"Benfleet"},{"crs":"HMS","lat":58.1174383722,"lon":-3.6586875663,"name":"Helmsdale"},{"crs":"KEY","lat":50.389877928,"lon":-4.1795991184,"name":"Keyham"},{"crs":"MOS","lat":53.7649745442,"lon":-2.9429344868,"name":"Moss Side"},{"crs":"PTK","lat":55.8698867932,"lon":-4.3088062491,"name":"Partick"},{"crs":"SGN","lat":51.5337476527,"lon":-0.3367043934,"name":"South Greenford"},{"crs":"SOR","lat":51.3831435877,"lon":0.3780969191,"name":"Sole Street"},{"crs":"DBD","lat":53.5726294198,"lon":-1.6632103594,"name":"Denby Dale"},{"crs":"BSP","lat":51.5406972752,"lon":-0.2101276574,"name":"Brondesbury Park"},{"crs":"SEE","lat":50.8312634098,"lon":0.0306412513,"name":"Southease"},{"crs":"ATW","lat":0.0,"lon":0.0,"name":"Alton Towers (Bus)"},{"crs":"CNR","lat":56.3904751044,"lon":-4.6184334822,"name":"Crianlarich"},{"crs":"CRT","lat":51.2572637039,"lon":1.0180392816,"name":"Chartham"},{"crs":"SUG","lat":52.0822681261,"lon":-3.686948751,"name":"Sugar Loaf"},{"crs":"HGM","lat":51.4265571278,"lon":0.4662777114,"name":"Higham"},{"crs":"WNG","lat":51.4881939588,"lon":-3.2296522825,"name":"Waun-gron Park"},{"crs":"DUM","lat":55.8446476766,"lon":-4.3012389786,"name":"Dumbreck"},{"crs":"CRB","lat":54.9662594276,"lon":-2.0184000801,"name":"Corbridge"},{"crs":"NFA","lat":51.6485816995,"lon":0.6816588061,"name":"North Fambridge"},{"crs":"AGV","lat":51.816688088,"lon":-3.0096467667,"name":"Abergavenny"},{"crs":"HAG","lat":52.4224880874,"lon":-2.1464170861,"name":"Hagley"},{"crs":"CEL","lat":53.2703082114,"lon":-2.2805770018,"name":"Chelford"},{"crs":"HWK","lat":0.0,"lon":0.0,"name":"Hawick (Bus)"},{"crs":"HGD","lat":51.4149085457,"lon":-1.5122869951,"name":"Hungerford"},{"crs":"BWN","lat":52.625434581,"lon":-2.0176843688,"name":"Bloxwich North"},{"crs":"KVD","lat":55.8935546318,"lon":-4.3095725255,"name":"Kelvindale"},{"crs":"RUS","lat":54.4701890971,"lon":-0.6277717087,"name":"Ruswarp"},{"crs":"CLV","lat":52.27708876,"lon":-1.6965598418,"name":"Claverdon"},{"crs":"RNH","lat":53.4171200045,"lon":-2.766400213,"name":"Rainhill"},{"crs":"CIC","lat":0.0,"lon":0.0,"name":"Park Lane (Bus)"},{"crs":"EWW","lat":51.350043014,"lon":-0.256986611,"name":"Ewell West"},{"crs":"HHY","lat":51.5461752909,"lon":-0.1037637136,"name":"Highbury & Islington"},{"crs":"APP","lat":54.5803448647,"lon":-2.4866922186,"name":"Appleby"},{"crs":"HKN","lat":53.0382823975,"lon":-1.1958115024,"name":"Hucknall"},{"crs":"MSN","lat":53.603184573,"lon":-1.9307497924,"name":"Marsden"},{"crs":"XDR","lat":0.0,"lon":0.0,"name":"Par (Bus)"},{"crs":"TPC","lat":53.1230900202,"lon":0.1994151531,"name":"Thorpe Culvert"},{"crs":"EWE","lat":51.3452976965,"lon":-0.2415296305,"name":"Ewell East"},{"crs":"GTN","lat":51.4676097677,"lon":-3.1897238295,"name":"Grangetown"},{"crs":"LEO","lat":52.2256802123,"lon":-2.7303410415,"name":"Leominster"},{"crs":"DOL","lat":52.2953486307,"lon":-3.2636202891,"name":"Dolau"},{"crs":"CUH","lat":55.9005643212,"lon":-3.3187513389,"name":"Curriehill"},{"crs":"KBK","lat":54.1729007162,"lon":-2.9252291567,"name":"Kents Bank"},{"crs":"DPS","lat":53.34783,"lon":-6.19848,"name":"Dublin Port (Stena)"},{"crs":"PAI","lat":54.9128,"lon":-1.4177,"name":"Pallion (T & W Metro)"},{"crs":"MCB","lat":50.8467201006,"lon":-0.1188418085,"name":"Moulsecoomb"},{"crs":"NMT","lat":52.1525874442,"lon":1.055259783,"name":"Needham Market"},{"crs":"WFI","lat":52.0809807282,"lon":1.1659048048,"name":"Westerfield"},{"crs":"SCG","lat":51.451328542,"lon":0.2637711629,"name":"Stone Crossing"},{"crs":"STR","lat":54.9096003955,"lon":-5.0247373599,"name":"Stranraer"},{"crs":"ZWA","lat":51.5031428,"lon":-0.1143696,"name":"Waterloo Underground"},{"crs":"PIL","lat":51.5566252042,"lon":-2.6271116241,"name":"Pilning"},{"crs":"SWD","lat":53.1695541544,"lon":-0.7026794571,"name":"Swinderby"},{"crs":"MSK","lat":54.5874157636,"lon":-1.018909718,"name":"Marske"},{"crs":"TRN","lat":55.5428097381,"lon":-4.6552994704,"name":"Troon"},{"crs":"WID","lat":53.3784949509,"lon":-2.7335366461,"name":"Widnes"},{"crs":"ZTL","lat":0.0,"lon":0.0,"name":"Turnpike Lane"},{"crs":"KMS","lat":51.2971852022,"lon":0.2474283364,"name":"Kemsing"},{"crs":"SCB","lat":0.0,"lon":0.0,"name":"Scrabster (Bus)"},{"crs":"STZ","lat":54.9114386097,"lon":-1.3838019376,"name":"St Peters (T & W Metro)"},{"crs":"ANF","lat":50.8898486443,"lon":-1.5266307165,"name":"Ashurst New Forest"},{"crs":"WTN","lat":51.4496054592,"lon":-0.3576814035,"name":"Whitton"},{"crs":"ANL","lat":55.8893490795,"lon":-4.3219567756,"name":"Anniesland"},{"crs":"XEF","lat":0.0,"lon":0.0,"name":"Mevagissey (Bus)"},{"crs":"SCS","lat":50.6277959246,"lon":-3.4477041746,"name":"Starcross"},{"crs":"FRB","lat":52.6960397381,"lon":-4.0494133033,"name":"Fairbourne"},{"crs":"STK","lat":54.5696206612,"lon":-1.3185431379,"name":"Stockton"},{"crs":"XCQ","lat":0.0,"lon":0.0,"name":"Chinnor (Bus)"},{"crs":"LSM","lat":0.0,"lon":0.0,"name":"Lismore (Bus)"},{"crs":"BEV","lat":53.8422718105,"lon":-0.4229801116,"name":"Beverley"},{"crs":"KKM","lat":53.7869136148,"lon":-2.882940764,"name":"Kirkham & Wesham"},{"crs":"PDW","lat":51.1822648197,"lon":0.3891486093,"name":"Paddock Wood"},{"crs":"CAN","lat":56.5005626296,"lon":-2.7066003596,"name":"Carnoustie"},{"crs":"STC","lat":57.4227325313,"lon":-5.4286125044,"name":"Strathcarron"},{"crs":"CUF","lat":51.7087198685,"lon":-0.1097834071,"name":"Cuffley"},{"crs":"MTP","lat":51.468347486,"lon":-2.5886855626,"name":"Montpelier"},{"crs":"SWM","lat":51.4490685605,"lon":0.3095431934,"name":"Swanscombe"},{"crs":"CBE","lat":51.2742656358,"lon":1.0759684444,"name":"Canterbury East"},{"crs":"DMF","lat":55.0725546442,"lon":-3.6043032225,"name":"Dumfries"},{"crs":"HNT","lat":57.4444878702,"lon":-2.7757400038,"name":"Huntly"},{"crs":"LLT","lat":52.3364233476,"lon":-3.2134207193,"name":"Llanbister Road"},{"crs":"WAT","lat":51.5032967494,"lon":-0.1131089421,"name":"London Waterloo"},{"crs":"MEW","lat":51.6053402042,"lon":-3.6489908684,"name":"Maesteg (Ewenny Road)"},{"crs":"SUT","lat":52.5649403999,"lon":-1.8248440889,"name":"Sutton Coldfield"},{"crs":"LDS","lat":53.7956249603,"lon":-1.5480255301,"name":"Leeds"},{"crs":"BNM","lat":51.5235037395,"lon":-0.6463737943,"name":"Burnham"},{"crs":"XDN","lat":0.0,"lon":0.0,"name":"Chippenham New Road (Bus)"},{"crs":"BEL","lat":57.4782819117,"lon":-4.4698657539,"name":"Beauly"},{"crs":"HXM","lat":52.7155690275,"lon":1.4079971107,"name":"Hoveton & Wroxham"},{"crs":"HDL","lat":51.6026471671,"lon":-0.3572198303,"name":"Headstone Lane"},{"crs":"LEY","lat":53.6988528679,"lon":-2.6871450711,"name":"Leyland"},{"crs":"SNY","lat":51.4702865021,"lon":-0.5593742155,"name":"Sunnymeads"},{"crs":"RNF","lat":53.5171038425,"lon":-2.7894690303,"name":"Rainford"},{"crs":"EGN","lat":53.7551594334,"lon":-0.7876303708,"name":"Eastrington"},{"crs":"KGH","lat":56.0693365742,"lon":-3.1741540591,"name":"Kinghorn"},{"crs":"MAT","lat":53.1384059694,"lon":-1.558910757,"name":"Matlock"},{"crs":"NCK","lat":55.4027381739,"lon":-4.1843407388,"name":"New Cumnock"},{"crs":"NWP","lat":51.5887872445,"lon":-3.0005434392,"name":"Newport (South Wales)"},{"crs":"QRD","lat":0.0,"lon":0.0,"name":"Quainton Road"},{"crs":"QPW","lat":51.5339643238,"lon":-0.2049848485,"name":"Queens Park (London)"},{"crs":"MSD","lat":53.5162724598,"lon":-2.3517994079,"name":"Moorside"},{"crs":"WLM","lat":55.7936848757,"lon":-4.2903344494,"name":"Williamwood"},{"crs":"DWD","lat":53.0520105816,"lon":-3.8851320996,"name":"Dolwyddelan"},{"crs":"WTL","lat":51.8180280334,"lon":-4.6143905742,"name":"Whitland"},{"crs":"MPK","lat":55.8408281892,"lon":-4.3482924906,"name":"Mosspark"},{"crs":"MAU","lat":53.4330594861,"lon":-2.2092512227,"name":"Mauldeth Road"},{"crs":"HEX","lat":54.97345761,"lon":-2.0947945778,"name":"Hexham"},{"crs":"CLI","lat":53.5224879481,"lon":-2.3147463293,"name":"Clifton"},{"crs":"SYD","lat":51.4272460361,"lon":-0.0542439764,"name":"Sydenham"},{"crs":"LAD","lat":51.456242441,"lon":-0.0190406888,"name":"Ladywell"},{"crs":"CTM","lat":51.3803765824,"lon":0.5211507291,"name":"Chatham"},{"crs":"SWY","lat":50.7847013127,"lon":-1.6099957658,"name":"Sway"},{"crs":"TRU","lat":50.2638387747,"lon":-5.0648121885,"name":"Truro"},{"crs":"DLY","lat":55.7062187626,"lon":-4.7110795549,"name":"Dalry"},{"crs":"PRP","lat":50.8459420886,"lon":-0.1551676421,"name":"Preston Park"},{"crs":"BPB","lat":53.7879505902,"lon":-3.0538759205,"name":"Blackpool Pleasure Beach"},{"crs":"XDY","lat":0.0,"lon":0.0,"name":"Dunster (Bus)"},{"crs":"LHO","lat":53.8048301966,"lon":-2.4486589946,"name":"Langho"},{"crs":"SPS","lat":55.890135247,"lon":-4.1408074898,"name":"Stepps"},{"crs":"TOP","lat":50.6862145312,"lon":-3.4644226259,"name":"Topsham"},{"crs":"BIA","lat":54.6571937143,"lon":-1.677714929,"name":"Bishop Auckland"},{"crs":"HTH","lat":53.3464915943,"lon":-2.2136332925,"name":"Handforth"},{"crs":"MRT","lat":53.4072050364,"lon":-3.1135019347,"name":"Moreton (Merseyside)"},{"crs":"MCH","lat":52.5598919783,"lon":0.0911977499,"name":"March"},{"crs":"TDU","lat":51.5473603359,"lon":-3.5955494171,"name":"Tondu"},{"crs":"BCS","lat":51.9034810453,"lon":-1.1503834405,"name":"Bicester North"},{"crs":"NMP","lat":52.2374987181,"lon":-0.906653069,"name":"Northampton"},{"crs":"ALP","lat":53.5854991106,"lon":-0.7331822551,"name":"Althorpe"},{"crs":"BSE","lat":52.2537613267,"lon":0.7133066938,"name":"Bury St Edmunds"},{"crs":"CPG","lat":0.0,"lon":0.0,"name":"Chipping Norton West St (Bus)"},{"crs":"PTR","lat":51.0067245492,"lon":-0.9411367348,"name":"Petersfield"},{"crs":"BUC","lat":52.5977361417,"lon":1.4703253612,"name":"Buckenham"},{"crs":"KLY","lat":51.3247750678,"lon":-0.1009254173,"name":"Kenley"},{"crs":"ELW","lat":51.4556416269,"lon":0.0524723368,"name":"Eltham"},{"crs":"WHA","lat":51.0949586709,"lon":1.0380495547,"name":"Westenhanger"},{"crs":"LHL","lat":0.0,"lon":0.0,"name":"Langholm (Bus)"},{"crs":"SWP","lat":0.0,"lon":0.0,"name":"Stranraer West Pier (Bus)"},{"crs":"XAM","lat":0.0,"lon":0.0,"name":"Culdrose RNAS (Bus)"},{"crs":"WWL","lat":53.2799588232,"lon":-1.2002071471,"name":"Whitwell"},{"crs":"EDW","lat":51.461492608,"lon":-0.0805716954,"name":"East Dulwich"},{"crs":"XAS","lat":0.0,"lon":0.0,"name":"Fowey (Bus)"},{"crs":"NRD","lat":54.5361980592,"lon":-1.5539496864,"name":"North Road"},{"crs":"BTE","lat":50.9182190818,"lon":-1.3769994994,"name":"Bitterne"},{"crs":"IMW","lat":51.474947243,"lon":-0.1828227495,"name":"Imperial Wharf"},{"crs":"ANN","lat":54.9838337698,"lon":-3.2625804189,"name":"Annan"},{"crs":"BDN","lat":50.6783701624,"lon":-1.1387223697,"name":"Brading"},{"crs":"CES","lat":51.8523347069,"lon":0.5779610667,"name":"Cressing"},{"crs":"KBW","lat":51.866853002,"lon":-0.1872887846,"name":"Knebworth"},{"crs":"DAR","lat":54.5204463,"lon":-1.5473238477,"name":"Darlington"},{"crs":"HWD","lat":53.1853568888,"lon":-3.0320806993,"name":"Hawarden"},{"crs":"TAD","lat":51.2916356761,"lon":-0.235964661,"name":"Tadworth"},{"crs":"BAG","lat":51.3643657347,"lon":-0.6886619649,"name":"Bagshot"},{"crs":"ZHS","lat":51.5010221,"lon":-0.1927364,"name":"Kensington High St Underground"},{"crs":"SMD","lat":52.6478302361,"lon":-0.4801152182,"name":"Stamford"},{"crs":"BUD","lat":54.354978185,"lon":-2.766676855,"name":"Burneside"},{"crs":"DOT","lat":54.950053802,"lon":-1.6420444265,"name":"Dunston"},{"crs":"ELS","lat":51.653067526,"lon":-0.2800815308,"name":"Elstree & Borehamwood"},{"crs":"CHF","lat":53.8265990159,"lon":-1.2275888075,"name":"Church Fenton"},{"crs":"HAZ","lat":53.3775414794,"lon":-2.1220193539,"name":"Hazel Grove"},{"crs":"KMH","lat":52.0922165618,"lon":-0.5039138164,"name":"Kempston Hardwick"},{"crs":"SOF","lat":51.6494563156,"lon":0.6065050721,"name":"South Woodham Ferrers"},{"crs":"NRW","lat":52.6271513567,"lon":1.3068200692,"name":"Norwich"},{"crs":"AHS","lat":51.1286608655,"lon":0.1526521191,"name":"Ashurst"},{"crs":"LCH","lat":0.0,"lon":0.0,"name":"Lochmaddy, North Uist (Bus)"},{"crs":"FZW","lat":53.6324990075,"lon":-1.3742730515,"name":"Fitzwilliam"},{"crs":"MIN","lat":55.825110461,"lon":-4.533357893,"name":"Milliken Park"},{"crs":"RUN","lat":53.338693085,"lon":-2.7392511191,"name":"Runcorn"},{"crs":"WSL","lat":52.5843967073,"lon":-1.9847549044,"name":"Walsall"},{"crs":"OKM","lat":52.6722130957,"lon":-0.7341711791,"name":"Oakham"},{"crs":"MST","lat":51.609936528,"lon":-3.6546455332,"name":"Maesteg"},{"crs":"KNU","lat":52.3598597604,"lon":-3.0968773831,"name":"Knucklas"},{"crs":"LEI","lat":52.6314234639,"lon":-1.125275488,"name":"Leicester"},{"crs":"WCR","lat":55.7903209572,"lon":-4.3101566141,"name":"Whitecraigs"},{"crs":"MRP","lat":53.5949945014,"lon":-1.3049470262,"name":"Moorthorpe"},{"crs":"SNH","lat":53.4531213473,"lon":-2.7303047705,"name":"St Helens Central"},{"crs":"CAO","lat":52.6861591722,"lon":-2.0221472571,"name":"Cannock"},{"crs":"DKR","lat":0.0,"lon":0.0,"name":"Derker"},{"crs":"RAI","lat":51.3663039079,"lon":0.6113370929,"name":"Rainham (Kent)"},{"crs":"RKT","lat":53.041461166,"lon":-0.3807621721,"name":"Ruskington"},{"crs":"YOK","lat":55.8925852925,"lon":-4.3862865838,"name":"Yoker"},{"crs":"BDT","lat":54.0841295494,"lon":-0.1987203834,"name":"Bridlington"},{"crs":"SLE","lat":0.0,"lon":0.0,"name":"Sale Metrolink (Bus)"},{"crs":"BHA","lat":0.0,"lon":0.0,"name":"Bournemouth Hurn Airport (Bus)"},{"crs":"LDN","lat":52.8361599462,"lon":-4.1238566218,"name":"Llandanwg"},{"crs":"SHJ","lat":53.4337239335,"lon":-2.7002594272,"name":"St Helens Junction"},{"crs":"CHH","lat":51.0506841707,"lon":-0.3635563271,"name":"Christs Hospital"},{"crs":"CMF","lat":53.1129304683,"lon":-1.5491618698,"name":"Cromford"},{"crs":"HYR","lat":51.4254460968,"lon":-0.1888147034,"name":"Haydons Road"},{"crs":"LGN","lat":52.9899511119,"lon":-2.1370105616,"name":"Longton"},{"crs":"XLB","lat":0.0,"lon":0.0,"name":"Leeds Bradford Airport (Bus)"},{"crs":"BXH","lat":51.4634982374,"lon":0.1337348778,"name":"Bexleyheath"},{"crs":"CPM","lat":51.4624862593,"lon":-2.1153938891,"name":"Chippenham"},{"crs":"DFR","lat":55.9412464055,"lon":-4.7747659717,"name":"Drumfrochar"},{"crs":"NCO","lat":50.7050400302,"lon":-3.4727841468,"name":"Newcourt"},{"crs":"WET","lat":53.9231763221,"lon":-1.5812156293,"name":"Weeton"},{"crs":"EMD","lat":52.8624988853,"lon":-1.2632318876,"name":"East Midlands Parkway"},{"crs":"POP","lat":53.9758962352,"lon":-1.1485966423,"name":"Poppleton"},{"crs":"AYH","lat":51.2272520595,"lon":1.209452777,"name":"Aylesham"},{"crs":"ZUM","lat":51.55902,"lon":0.25091,"name":"Upminster Underground"},{"crs":"CHD","lat":53.2382185059,"lon":-1.4201158497,"name":"Chesterfield"},{"crs":"HEZ","lat":54.9516,"lon":-1.5558,"name":"Heworth (T & W Metro)"},{"crs":"PRB","lat":53.2933812549,"lon":-2.1454824996,"name":"Prestbury"},{"crs":"GTR","lat":53.2225504924,"lon":-2.3264703017,"name":"Goostrey"},{"crs":"ACK","lat":55.3070969656,"lon":-1.651834631,"name":"Acklington"},{"crs":"KNL","lat":51.5305383607,"lon":-0.225087657,"name":"Kensal Green"},{"crs":"SAN","lat":50.6568695899,"lon":-1.1623873295,"name":"Sandown"},{"crs":"THL","lat":52.3951021574,"lon":-1.5968483834,"name":"Tile Hill"},{"crs":"SIP","lat":51.8656524537,"lon":-1.5926933114,"name":"Shipton"},{"crs":"SFA","lat":51.5448263141,"lon":-0.0087776439,"name":"Stratford International"},{"crs":"UPW","lat":50.648269956,"lon":-2.4661380602,"name":"Upwey"},{"crs":"GIP","lat":51.4244512468,"lon":-0.0838359136,"name":"Gipsy Hill"},{"crs":"RUT","lat":55.8305912638,"lon":-4.2121040624,"name":"Rutherglen"},{"crs":"SES","lat":53.5946065172,"lon":-1.284858276,"name":"South Elmsall"},{"crs":"TGM","lat":50.5480602865,"lon":-3.4946627198,"name":"Teignmouth"},{"crs":"ADS","lat":55.639870803,"lon":-4.8211102989,"name":"Ardrossan Harbour"},{"crs":"BCG","lat":51.5215544251,"lon":-3.2018531943,"name":"Birchgrove"},{"crs":"RFD","lat":51.5817266499,"lon":0.7023032471,"name":"Rochford"},{"crs":"PES","lat":52.8307043686,"lon":-4.1121596408,"name":"Pensarn"},{"crs":"BAI","lat":55.8664496606,"lon":-4.0432902653,"name":"Blairhill"},{"crs":"TLB","lat":52.7726282767,"lon":-4.096596334,"name":"Talybont"},{"crs":"PBU","lat":0.0,"lon":0.0,"name":"Peterborough Queensgate (Bus)"},{"crs":"SVG","lat":51.9016857038,"lon":-0.2071094583,"name":"Stevenage"},{"crs":"WPE","lat":51.5043861798,"lon":-0.0559308927,"name":"Wapping"},{"crs":"BDG","lat":55.8489614014,"lon":-4.226056226,"name":"Bridgeton"},{"crs":"THH","lat":53.4365805876,"lon":-2.7593744497,"name":"Thatto Heath"},{"crs":"ATB","lat":52.9062112877,"lon":-1.2314155151,"name":"Attenborough"},{"crs":"MTH","lat":55.791672963,"lon":-3.9943252695,"name":"Motherwell"},{"crs":"WKM","lat":51.4112167336,"lon":-0.8425432229,"name":"Wokingham"},{"crs":"GMT","lat":54.43611152,"lon":-0.7249656173,"name":"Grosmont"},{"crs":"ARL","lat":52.0260294458,"lon":-0.2663198291,"name":"Arlesey"},{"crs":"BGD","lat":51.6923074228,"lon":-3.2296795166,"name":"Bargoed"},{"crs":"REE","lat":52.5645014187,"lon":1.5596512495,"name":"Reedham (Norfolk)"},{"crs":"HPA","lat":51.4499871064,"lon":-0.0455054491,"name":"Honor Oak Park"},{"crs":"NUN","lat":52.5263688981,"lon":-1.4638752027,"name":"Nuneaton"},{"crs":"GGT","lat":0.0,"lon":0.0,"name":"Glasgow Airport (Bus)"},{"crs":"TRM","lat":51.9765267064,"lon":1.3195363792,"name":"Trimley"},{"crs":"WTY","lat":51.133160178,"lon":-0.6457830216,"name":"Witley"},{"crs":"SWO","lat":51.2152979264,"lon":1.2137051135,"name":"Snowdown"},{"crs":"MDB","lat":51.2771674749,"lon":0.5139601567,"name":"Maidstone Barracks"},{"crs":"ENL","lat":51.6709202147,"lon":-0.0285324604,"name":"Enfield Lock"},{"crs":"MIJ","lat":51.3929482693,"lon":-0.1577566403,"name":"Mitcham Junction"},{"crs":"MDE","lat":51.2778281024,"lon":0.5212950678,"name":"Maidstone East"},{"crs":"GOD","lat":51.1865848196,"lon":-0.6188623047,"name":"Godalming"},{"crs":"HGR","lat":51.4520233902,"lon":-0.0009442471,"name":"Hither Green"},{"crs":"SPO","lat":52.9122175858,"lon":-1.4110939242,"name":"Spondon"},{"crs":"WNT","lat":51.4610459425,"lon":-0.1881254748,"name":"Wandsworth Town"},{"crs":"ECR","lat":51.3754519308,"lon":-0.092779695,"name":"East Croydon"},{"crs":"CLS","lat":54.8545928974,"lon":-1.5780152721,"name":"Chester-le-Street"},{"crs":"QYD","lat":51.6607235503,"lon":-3.3228003923,"name":"Quakers Yard"},{"crs":"WBC","lat":52.2623035628,"lon":0.1967905103,"name":"Waterbeach"},{"crs":"NES","lat":53.2918494636,"lon":-3.0630760899,"name":"Neston"},{"crs":"PCN","lat":55.8400758258,"lon":-4.424117325,"name":"Paisley Canal"},{"crs":"WSA","lat":53.3691230163,"lon":-2.9069642053,"name":"West Allerton"},{"crs":"SFI","lat":55.9199378557,"lon":-3.0787119602,"name":"Shawfair"},{"crs":"SLH","lat":54.4610511354,"lon":-0.6624808189,"name":"Sleights"},{"crs":"HTN","lat":52.295276147,"lon":-1.6729751599,"name":"Hatton"},{"crs":"KIV","lat":53.3409562434,"lon":-1.2671793922,"name":"Kiveton Bridge"},{"crs":"RIS","lat":53.7638131654,"lon":-2.4201576603,"name":"Rishton"},{"crs":"DMS","lat":51.1557898966,"lon":-0.0043082602,"name":"Dormans"},{"crs":"LCN","lat":53.2260854308,"lon":-0.5399219252,"name":"Lincoln Central"},{"crs":"XHC","lat":0.0,"lon":0.0,"name":"Hatton Cross (Bus)"},{"crs":"BMK","lat":0.0,"lon":0.0,"name":"Burnham Market (Bus)"},{"crs":"WLC","lat":51.6850591071,"lon":-0.0265583925,"name":"Waltham Cross"},{"crs":"WOX","lat":0.0,"lon":0.0,"name":"Workington Bus Station"},{"crs":"MPT","lat":55.1623748435,"lon":-1.6830745047,"name":"Morpeth"},{"crs":"MDW","lat":51.2704641828,"lon":0.5157734395,"name":"Maidstone West"},{"crs":"WEL","lat":52.3037809417,"lon":-0.6766509179,"name":"Wellingborough"},{"crs":"HRY","lat":51.5771803467,"lon":-0.0981437725,"name":"Harringay Green Lanes"},{"crs":"MOB","lat":53.3291375834,"lon":-2.3336654262,"name":"Mobberley"},{"crs":"SWL","lat":51.3892342432,"lon":0.7471336342,"name":"Swale"},{"crs":"ECC","lat":53.4853569021,"lon":-2.3345142737,"name":"Eccles"},{"crs":"HEW","lat":54.9515666539,"lon":-1.5557661266,"name":"Heworth"},{"crs":"LLH","lat":51.6911342654,"lon":-4.0789293125,"name":"Llangennech"},{"crs":"BKO","lat":51.303756133,"lon":-0.6357478719,"name":"Brookwood"},{"crs":"GSY","lat":53.8759326743,"lon":-1.7150799174,"name":"Guiseley"},{"crs":"SBY","lat":53.7827833301,"lon":-1.0637859417,"name":"Selby"},{"crs":"WCS","lat":0.0,"lon":0.0,"name":"Wembley Stadium (Bus)"},{"crs":"WSB","lat":51.2669843744,"lon":-2.1991816777,"name":"Westbury"},{"crs":"ETC","lat":51.0105441619,"lon":0.4423562845,"name":"Etchingham"},{"crs":"BLT","lat":55.7973244061,"lon":-4.0869706936,"name":"Blantyre"},{"crs":"SSD","lat":51.8885891318,"lon":0.2608155053,"name":"Stansted Airport"},{"crs":"DOR","lat":53.3276326808,"lon":-1.5152976185,"name":"Dore"},{"crs":"NVR","lat":53.3953742998,"lon":-2.343417127,"name":"Navigation Road"},{"crs":"CFF","lat":55.8182552019,"lon":-4.2283245895,"name":"Croftfoot"},{"crs":"CKN","lat":50.8735338377,"lon":-2.778495992,"name":"Crewkerne"},{"crs":"GLT","lat":56.1623560386,"lon":-3.1430152965,"name":"Glenrothes with Thornton"},{"crs":"WTG","lat":52.6731696597,"lon":0.3833160875,"name":"Watlington"},{"crs":"BAN","lat":52.060306484,"lon":-1.3281327879,"name":"Banbury"},{"crs":"HYS","lat":51.3763319581,"lon":0.0105567117,"name":"Hayes (Kent)"},{"crs":"BHR","lat":52.1693204296,"lon":-3.4270325387,"name":"Builth Road"},{"crs":"KND","lat":51.294722867,"lon":-0.2112475532,"name":"Kingswood"},{"crs":"KNN","lat":52.4142889973,"lon":-1.9323257367,"name":"Kings Norton"},{"crs":"WOL","lat":52.065876012,"lon":-0.8042669764,"name":"Wolverton"},{"crs":"WTO","lat":52.5185834088,"lon":-1.7430903838,"name":"Water Orton"},{"crs":"ADR","lat":55.8639776519,"lon":-3.9829120183,"name":"Airdrie"},{"crs":"LLC","lat":52.920683013,"lon":-4.057034603,"name":"Llandecwyn"},{"crs":"PKS","lat":50.7229770681,"lon":-1.9479564877,"name":"Parkstone (Dorset)"},{"crs":"GOM","lat":51.2193967076,"lon":-0.4418521785,"name":"Gomshall"},{"crs":"TYL","lat":56.4333410081,"lon":-4.7148209931,"name":"Tyndrum Lower"},{"crs":"BOP","lat":51.6070100207,"lon":-0.1205819485,"name":"Bowes Park"},{"crs":"HER","lat":51.3768102219,"lon":-0.3899592507,"name":"Hersham"},{"crs":"WRH","lat":50.8184969925,"lon":-0.3761714518,"name":"Worthing"},{"crs":"BON","lat":53.5741416373,"lon":-2.4258246278,"name":"Bolton"},{"crs":"BOA","lat":51.3449124682,"lon":-2.2523266382,"name":"Bradford-on-Avon"},{"crs":"CFH","lat":51.4855552924,"lon":0.2874469314,"name":"Chafford Hundred"},{"crs":"UTY","lat":56.4346620676,"lon":-4.7037213783,"name":"Upper Tyndrum"},{"crs":"NAR","lat":51.7993665725,"lon":-4.7271750023,"name":"Narberth"},{"crs":"BDL","lat":53.6340479344,"lon":-3.014449576,"name":"Birkdale"},{"crs":"HMT","lat":51.0683764869,"lon":0.8545063324,"name":"Ham Street"},{"crs":"MKM","lat":51.3798212134,"lon":-2.1444969779,"name":"Melksham"},{"crs":"AUW","lat":51.8673390856,"lon":-1.5640526623,"name":"Ascott-under-Wychwood"},{"crs":"EAL","lat":51.5148396224,"lon":-0.3017517585,"name":"Ealing Broadway"},{"crs":"WTB","lat":54.4846082581,"lon":-0.6154029094,"name":"Whitby"},{"crs":"CST","lat":51.5113804536,"lon":-0.0902929747,"name":"London Cannon Street"},{"crs":"DWN","lat":53.6980342985,"lon":-2.4649396581,"name":"Darwen"},{"crs":"BLE","lat":53.8053471316,"lon":-1.6372061939,"name":"Bramley (West Yorkshire)"},{"crs":"AAP","lat":51.5979221372,"lon":-0.120235214,"name":"Alexandra Palace"},{"crs":"NUF","lat":51.2268117014,"lon":-0.1325313182,"name":"Nutfield"},{"crs":"STG","lat":56.119815732,"lon":-3.9356194948,"name":"Stirling"},{"crs":"XDX","lat":0.0,"lon":0.0,"name":"Cullompton (Bus)"},{"crs":"HON","lat":50.7965793506,"lon":-3.186717809,"name":"Honiton"},{"crs":"BPW","lat":51.5137994963,"lon":-2.5421630495,"name":"Bristol Parkway"},{"crs":"KIT","lat":51.4025202563,"lon":-1.4459888717,"name":"Kintbury"},{"crs":"RAD","lat":51.6862041955,"lon":-1.2404820423,"name":"Radley"},{"crs":"MCE","lat":54.9587477111,"lon":-1.6656259025,"name":"Metro Centre"},{"crs":"SNT","lat":53.2783608913,"lon":-2.8420514307,"name":"Stanlow & Thornton"},{"crs":"BYD","lat":51.4024398781,"lon":-3.2607033065,"name":"Barry Docks"},{"crs":"DAM","lat":55.9863176146,"lon":-3.3816195779,"name":"Dalmeny"},{"crs":"FIN","lat":51.8527804477,"lon":-1.4693429732,"name":"Finstock"},{"crs":"BMT","lat":51.4400861633,"lon":-2.5941489286,"name":"Bedminster"},{"crs":"HSL","lat":51.0886463972,"lon":-0.719162621,"name":"Haslemere"},{"crs":"CET","lat":51.8864538045,"lon":0.9047625216,"name":"Colchester Town"},{"crs":"HDG","lat":53.3694140708,"lon":-2.2366673374,"name":"Heald Green"},{"crs":"PNR","lat":54.6618036341,"lon":-2.7588806662,"name":"Penrith"},{"crs":"XAE","lat":0.0,"lon":0.0,"name":"Abingdon (Bus)"},{"crs":"MHM","lat":51.2641523442,"lon":-0.1502256766,"name":"Merstham"},{"crs":"HSC","lat":53.5977665228,"lon":-2.8044208501,"name":"Hoscar"},{"crs":"SNO","lat":52.2315657909,"lon":-0.2474139037,"name":"St Neots"},{"crs":"BGM","lat":51.4329111741,"lon":-0.0193308027,"name":"Bellingham"},{"crs":"NTL","lat":50.8749075022,"lon":-1.3419028362,"name":"Netley"},{"crs":"HYH","lat":51.8856374248,"lon":0.927527575,"name":"Hythe"},{"crs":"RDC","lat":52.3063240528,"lon":-1.9452496139,"name":"Redditch"},{"crs":"LTK","lat":51.7522300626,"lon":-0.8084523861,"name":"Little Kimble"},{"crs":"EAS","lat":0.0,"lon":0.0,"name":"Earlston, Borders (Bus)"},{"crs":"FOD","lat":50.8293919868,"lon":-0.5784100057,"name":"Ford"},{"crs":"CLJ","lat":51.4641850443,"lon":-0.1702214719,"name":"Clapham Junction"},{"crs":"PNW","lat":51.4175532862,"lon":-0.0608399036,"name":"Penge West"},{"crs":"WFJ","lat":51.6639058582,"lon":-0.3959253002,"name":"Watford Junction"},{"crs":"HCH","lat":53.1989294166,"lon":-2.3511397813,"name":"Holmes Chapel"},{"crs":"LVN","lat":51.0797493837,"lon":-0.307980526,"name":"Littlehaven"},{"crs":"BTL","lat":53.7099397341,"lon":-1.6229524741,"name":"Batley"},{"crs":"ZET","lat":51.4921183,"lon":-0.193179,"name":"Earl's Court Underground"},{"crs":"WDL","lat":55.9312049707,"lon":-4.6554009609,"name":"Woodhall"},{"crs":"BLX","lat":52.6181986171,"lon":-2.0114778321,"name":"Bloxwich"},{"crs":"HLS","lat":50.8282748368,"lon":-1.0587973706,"name":"Hilsea"},{"crs":"MKT","lat":51.8809368895,"lon":0.7833273988,"name":"Marks Tey"},{"crs":"OKE","lat":50.732378532,"lon":-3.9962148244,"name":"Okehampton"},{"crs":"HWY","lat":51.6295842045,"lon":-0.745409864,"name":"High Wycombe"},{"crs":"SYT","lat":52.5102283721,"lon":1.6522601256,"name":"Somerleyton"},{"crs":"MRY","lat":54.7113177631,"lon":-3.4940743337,"name":"Maryport"},{"crs":"SDY","lat":52.1247319396,"lon":-0.2811904406,"name":"Sandy"},{"crs":"CEF","lat":53.3122292092,"lon":-1.9187623892,"name":"Chapel-en-le-Frith"},{"crs":"LTP","lat":52.4623786199,"lon":0.3165592321,"name":"Littleport"},{"crs":"KPT","lat":55.9247001903,"lon":-4.4534119005,"name":"Kilpatrick"},{"crs":"WDD","lat":55.2413047847,"lon":-1.6164734253,"name":"Widdrington"},{"crs":"WHM","lat":50.7680259434,"lon":-3.3543220123,"name":"Whimple"},{"crs":"CIT","lat":51.4055546439,"lon":0.0574179745,"name":"Chislehurst"},{"crs":"PFR","lat":53.6918800255,"lon":-1.3033528108,"name":"Pontefract Baghill"},{"crs":"BKC","lat":53.3883117303,"lon":-3.0208206208,"name":"Birkenhead Central"},{"crs":"HOY","lat":53.6082266764,"lon":-1.7809653136,"name":"Honley"},{"crs":"INC","lat":53.5389103054,"lon":-2.6115196452,"name":"Ince"},{"crs":"XBV","lat":0.0,"lon":0.0,"name":"Minehead Butlins (Bus)"},{"crs":"WHH","lat":0.0,"lon":0.0,"name":"Whitehill Prince of Wales (Bus"},{"crs":"GRC","lat":52.059808956,"lon":0.1935210146,"name":"Great Chesterford"},{"crs":"IPS","lat":52.0505901767,"lon":1.1444255837,"name":"Ipswich"},{"crs":"WCB","lat":51.484200812,"lon":0.0183946582,"name":"Westcombe Park"},{"crs":"LYP","lat":50.7582987165,"lon":-1.5294469143,"name":"Lymington Pier"},{"crs":"CTF","lat":51.4444048407,"lon":-0.0263165926,"name":"Catford"},{"crs":"CTE","lat":55.7652175432,"lon":-4.0046743293,"name":"Chatelherault"},{"crs":"FWY","lat":52.4710932778,"lon":-1.912954302,"name":"Five Ways"},{"crs":"NDL","lat":51.4545084596,"lon":-0.0879175484,"name":"North Dulwich"},{"crs":"BWO","lat":51.7054260762,"lon":-0.3591150281,"name":"Bricket Wood"},{"crs":"BKN","lat":53.4044329781,"lon":-3.0575331085,"name":"Birkenhead North"},{"crs":"SOW","lat":53.7078448129,"lon":-1.9070215307,"name":"Sowerby Bridge"},{"crs":"BTY","lat":51.1812313107,"lon":-0.8681268517,"name":"Bentley (Hampshire)"},{"crs":"KLD","lat":54.4777559878,"lon":-1.0681434642,"name":"Kildale"},{"crs":"NQY","lat":50.4150929822,"lon":-5.0756541475,"name":"Newquay"},{"crs":"SCA","lat":54.2797901841,"lon":-0.4057030489,"name":"Scarborough"},{"crs":"BEG","lat":51.2047067374,"lon":0.4034955027,"name":"Beltring"},{"crs":"BKP","lat":53.397403659,"lon":-3.0391007448,"name":"Birkenhead Park"},{"crs":"GLO","lat":53.4444681008,"lon":-1.9490737273,"name":"Glossop"},{"crs":"GRH","lat":55.885659507,"lon":-4.0794940823,"name":"Gartcosh"},{"crs":"TUT","lat":52.8641336215,"lon":-1.6822349348,"name":"Tutbury & Hatton"},{"crs":"BCE","lat":51.4130901127,"lon":-0.7517036128,"name":"Bracknell"},{"crs":"XAD","lat":0.0,"lon":0.0,"name":"Dunstable (Bus)"},{"crs":"NNT","lat":54.5278789672,"lon":-1.1694488358,"name":"Nunthorpe"},{"crs":"ZNP","lat":51.5756402,"lon":0.0901747,"name":"Newbury Park Underground"},{"crs":"SND","lat":51.3469291321,"lon":-0.8045905369,"name":"Sandhurst"},{"crs":"XTO","lat":0.0,"lon":0.0,"name":"Trecynon (Bus)"},{"crs":"FSB","lat":50.8390495892,"lon":-0.8150842089,"name":"Fishbourne (West Sussex)"},{"crs":"XCY","lat":0.0,"lon":0.0,"name":"Tintagel (Bus)"},{"crs":"DUU","lat":0.0,"lon":0.0,"name":"Duns (Bus)"},{"crs":"SLW","lat":53.7815385484,"lon":-2.8170384438,"name":"Salwick"},{"crs":"DIG","lat":50.7139875186,"lon":-3.4735603874,"name":"Digby & Sowton"},{"crs":"EDG","lat":53.4026144946,"lon":-2.9464829295,"name":"Edge Hill"},{"crs":"INH","lat":57.9248685519,"lon":-4.3994778176,"name":"Invershin"},{"crs":"BTB","lat":53.575119282,"lon":-0.4096796917,"name":"Barnetby"},{"crs":"SJN","lat":54.9743,"lon":-1.6208,"name":"St James (T & W Metro)"},{"crs":"SUY","lat":52.0362761444,"lon":0.735444306,"name":"Sudbury"},{"crs":"AIG","lat":53.3645632661,"lon":-2.9271548962,"name":"Aigburth"},{"crs":"ELR","lat":53.4986574228,"lon":-1.4274237921,"name":"Elsecar"},{"crs":"SGB","lat":52.5017792675,"lon":-1.9805109053,"name":"Smethwick Galton Bridge"},{"crs":"HYL","lat":50.1855603391,"lon":-5.4198360761,"name":"Hayle"},{"crs":"KEM","lat":51.6769938657,"lon":-2.0228170893,"name":"Kemble"},{"crs":"LRN","lat":0.0,"lon":0.0,"name":"Larne Harbour (Bus)"},{"crs":"SAS","lat":53.7530300669,"lon":-3.0290992555,"name":"St Annes-on-the-Sea"},{"crs":"SHM","lat":52.9414250719,"lon":1.2103201841,"name":"Sheringham"},{"crs":"WRL","lat":54.8838388106,"lon":-2.8317131227,"name":"Wetheral"},{"crs":"SUP","lat":51.4137796798,"lon":0.0214463301,"name":"Sundridge Park"},{"crs":"AWM","lat":52.030770306,"lon":-0.1097889122,"name":"Ashwell & Morden"},{"crs":"BUY","lat":53.8120285759,"lon":-1.5777675402,"name":"Burley Park"},{"crs":"ABA","lat":51.7150561194,"lon":-3.4430833973,"name":"Aberdare"},{"crs":"CRO","lat":55.9556762221,"lon":-4.0359759141,"name":"Croy"},{"crs":"DAT","lat":51.4830750741,"lon":-0.5794218865,"name":"Datchet"},{"crs":"UIG","lat":0.0,"lon":0.0,"name":"Uig, Skye (Bus)"},{"crs":"LGS","lat":55.8211317598,"lon":-4.277340001,"name":"Langside"},{"crs":"WDM","lat":54.3796013675,"lon":-2.9033914145,"name":"Windermere"},{"crs":"GMY","lat":51.5655770676,"lon":0.1108070736,"name":"Goodmayes"},{"crs":"BDQ","lat":53.7969228141,"lon":-1.7529615545,"name":"Bradford Forster Square"},{"crs":"SOH","lat":51.5414303167,"lon":-0.178877764,"name":"South Hampstead"},{"crs":"GPK","lat":51.6426054855,"lon":-0.0973585003,"name":"Grange Park"},{"crs":"EDP","lat":55.9275497592,"lon":-3.3076641196,"name":"Edinburgh Park"},{"crs":"NWB","lat":51.5625940137,"lon":-0.3039841113,"name":"North Wembley"},{"crs":"NWE","lat":51.9798676604,"lon":0.2151404816,"name":"Newport (Essex)"},{"crs":"CYT","lat":53.7328688022,"lon":-2.5183788156,"name":"Cherry Tree"},{"crs":"RTY","lat":0.0,"lon":0.0,"name":"Rothesay, Bute (Bus)"},{"crs":"HUY","lat":53.4096823958,"lon":-2.8429888014,"name":"Huyton"},{"crs":"SFN","lat":52.6660696355,"lon":-2.3718397255,"name":"Shifnal"},{"crs":"TOM","lat":51.5883079729,"lon":-0.0599291812,"name":"Tottenham Hale"},{"crs":"CDI","lat":50.7833008331,"lon":-3.6467775134,"name":"Crediton"},{"crs":"HUT","lat":53.9558533273,"lon":-0.4338615768,"name":"Hutton Cranswick"},{"crs":"ABW","lat":51.4910605588,"lon":0.1213940319,"name":"Abbey Wood"},{"crs":"GDL","lat":53.4517018974,"lon":-2.0547723525,"name":"Godley"},{"crs":"RHD","lat":54.2058431863,"lon":-2.3608557794,"name":"Ribblehead"},{"crs":"TYP","lat":55.0173,"lon":-1.4282,"name":"Tynemouth (T & W Metro)"},{"crs":"CSO","lat":53.6675584505,"lon":-2.7777496822,"name":"Croston"},{"crs":"PHR","lat":51.1973356812,"lon":0.1734721836,"name":"Penshurst"},{"crs":"LAC","lat":50.8270814198,"lon":-0.3231092538,"name":"Lancing"},{"crs":"SWS","lat":52.5822227241,"lon":-1.1340771171,"name":"South Wigston"},{"crs":"BUX","lat":53.2607196255,"lon":-1.9128633723,"name":"Buxton"},{"crs":"MLD","lat":53.2318039968,"lon":-2.7322244128,"name":"Mouldsworth"},{"crs":"FLE","lat":51.2906330393,"lon":-0.8308056526,"name":"Fleet"},{"crs":"MKR","lat":53.3839109411,"lon":-0.336898807,"name":"Market Rasen"},{"crs":"LEG","lat":53.4268079101,"lon":-2.7249774744,"name":"Lea Green"},{"crs":"CMH","lat":51.7019254925,"lon":-3.4137230348,"name":"Cwmbach"},{"crs":"TMC","lat":51.001501427,"lon":-2.4177246527,"name":"Templecombe"},{"crs":"TWI","lat":51.450029339,"lon":-0.330393811,"name":"Twickenham"},{"crs":"WEE","lat":51.8530967678,"lon":1.1154817039,"name":"Weeley"},{"crs":"HID","lat":53.597421117,"lon":-2.4131096517,"name":"Hall I' Th' Wood"},{"crs":"TTF","lat":52.4191233296,"lon":0.7450729796,"name":"Thetford"},{"crs":"CNA","lat":0.0,"lon":0.0,"name":"Canna (Bus)"},{"crs":"DLH","lat":50.9185861674,"lon":0.6099747595,"name":"Doleham"},{"crs":"WTZ","lat":0.0,"lon":0.0,"name":"Whitby Bus Station"},{"crs":"BTF","lat":52.9446128205,"lon":-0.7948426705,"name":"Bottesford"},{"crs":"JOR","lat":55.8827052673,"lon":-4.3249178073,"name":"Jordanhill"},{"crs":"TIL","lat":51.4623565986,"lon":0.3540384717,"name":"Tilbury Town"},{"crs":"BMR","lat":53.3299045316,"lon":-2.9894688947,"name":"Bromborough Rake"},{"crs":"DPD","lat":51.2388023479,"lon":-0.3246431744,"name":"Dorking Deepdene"},{"crs":"BUT","lat":52.8058138467,"lon":-1.6424598105,"name":"Burton-on-Trent"},{"crs":"FRN","lat":57.7781418461,"lon":-3.9939356685,"name":"Fearn"},{"crs":"XCG","lat":0.0,"lon":0.0,"name":"Okehampton (Bus)"},{"crs":"SPK","lat":53.1140911024,"lon":-1.2455682709,"name":"Sutton Parkway"},{"crs":"STL","lat":51.50595478,"lon":-0.3786103608,"name":"Southall"},{"crs":"VXH","lat":51.4861880036,"lon":-0.1228895443,"name":"Vauxhall"},{"crs":"ALM","lat":55.3927763454,"lon":-1.6366376765,"name":"Alnmouth"},{"crs":"HMN","lat":51.547010188,"lon":-0.0423598306,"name":"Homerton"},{"crs":"PNS","lat":53.5255445328,"lon":-1.6227807231,"name":"Penistone"},{"crs":"DFP","lat":53.29684,"lon":-6.13244,"name":"Dublin Ferryport"},{"crs":"SED","lat":52.1488259277,"lon":0.1399809163,"name":"Shelford"},{"crs":"MLB","lat":52.0538348913,"lon":-0.532703098,"name":"Millbrook (Bedfordshire)"},{"crs":"WWR","lat":51.4702145955,"lon":-0.1385196592,"name":"Wandsworth Road"},{"crs":"WBR","lat":53.3302330873,"lon":-1.9846450497,"name":"Whaley Bridge"},{"crs":"CNS","lat":53.4893074034,"lon":-1.2343314146,"name":"Conisbrough"},{"crs":"JHN","lat":55.8347074289,"lon":-4.5036371962,"name":"Johnstone"},{"crs":"LND","lat":55.9764833709,"lon":-2.8883430331,"name":"Longniddry"},{"crs":"STF","lat":57.3522968025,"lon":-5.5511606214,"name":"Stromeferry"},{"crs":"BCN","lat":55.9405943648,"lon":-4.8035480437,"name":"Branchton"},{"crs":"PET","lat":51.3886168902,"lon":0.0744808486,"name":"Petts Wood"},{"crs":"RSG","lat":53.7861918901,"lon":-2.282796364,"name":"Rose Grove"},{"crs":"SAM","lat":53.7219227948,"lon":-0.8094856695,"name":"Saltmarshe"},{"crs":"BNS","lat":51.4670842425,"lon":-0.2421642817,"name":"Barnes"},{"crs":"PKG","lat":52.7234978204,"lon":-2.1192935937,"name":"Penkridge"},{"crs":"MUF","lat":53.462191549,"lon":-2.2906528308,"name":"Manchester United FC"},{"crs":"RHY","lat":51.7588356347,"lon":-3.2892982966,"name":"Rhymney"},{"crs":"AMR","lat":51.674204017,"lon":-0.6075961131,"name":"Amersham"},{"crs":"KDB","lat":51.462119404,"lon":0.0274975452,"name":"Kidbrooke"},{"crs":"PLC","lat":51.156470939,"lon":0.74739587,"name":"Pluckley"},{"crs":"BUA","lat":0.0,"lon":0.0,"name":"Bude Strand (Bus)"},{"crs":"HWO","lat":0.0,"lon":0.0,"name":"Heathrow Airport T1 (Bus)"},{"crs":"CSM","lat":54.4671419859,"lon":-0.9466483458,"name":"Castleton Moor"},{"crs":"HWA","lat":0.0,"lon":0.0,"name":"Heathrow Airport T2 (Bus)"},{"crs":"HWE","lat":0.0,"lon":0.0,"name":"Heathrow Airport T3 (Bus)"},{"crs":"HWF","lat":51.4593288767,"lon":-0.446967559,"name":"Heathrow Airport T4 (Bus)"},{"crs":"GTY","lat":53.3929029714,"lon":-2.2312339632,"name":"Gatley"},{"crs":"HWX","lat":51.4712489794,"lon":-0.4893688324,"name":"Heathrow Airport T5 (Bus)"},{"crs":"BLK","lat":53.5915203601,"lon":-2.5695239276,"name":"Blackrod"},{"crs":"SLK","lat":53.5349155596,"lon":-1.5634785622,"name":"Silkstone Common"},{"crs":"BSB","lat":53.0413633789,"lon":-0.943687482,"name":"Bleasby"},{"crs":"AGS","lat":55.8573027415,"lon":-4.2506938307,"name":"Argyle Street"},{"crs":"MUI","lat":55.8094575718,"lon":-4.2743916748,"name":"Muirend"},{"crs":"CAQ","lat":0.0,"lon":0.0,"name":"Castle Howard (Bus)"},{"crs":"SMG","lat":51.4552342049,"lon":-0.3202004901,"name":"St Margarets (London)"},{"crs":"MAN","lat":53.4773597784,"lon":-2.2309098974,"name":"Manchester Piccadilly"},{"crs":"OLM","lat":0.0,"lon":0.0,"name":"Oldham Mumps"},{"crs":"SEG","lat":51.2773529318,"lon":0.9408702889,"name":"Selling"},{"crs":"PLN","lat":57.0613753802,"lon":-2.1266113028,"name":"Portlethen"},{"crs":"BSM","lat":50.7269628729,"lon":-1.9197582085,"name":"Branksome"},{"crs":"NLN","lat":53.6116608776,"lon":-2.8677159579,"name":"New Lane"},{"crs":"HTO","lat":53.5251041362,"lon":-3.0570679115,"name":"Hightown"},{"crs":"BYI","lat":51.3924116446,"lon":-3.2733633778,"name":"Barry Island"},{"crs":"HOL","lat":50.7114068108,"lon":-2.0778447829,"name":"Holton Heath"},{"crs":"SFL","lat":53.4662667778,"lon":-3.0056232116,"name":"Seaforth & Litherland"},{"crs":"SBR","lat":56.8900126872,"lon":-4.9216067287,"name":"Spean Bridge"},{"crs":"OLW","lat":0.0,"lon":0.0,"name":"Oldham Werneth"},{"crs":"XPT","lat":0.0,"lon":0.0,"name":"Preston C S (Ferry)"},{"crs":"LRB","lat":50.8366610331,"lon":-0.1365023384,"name":"London Road (Brighton)"},{"crs":"GSC","lat":55.8973367373,"lon":-4.282684401,"name":"Gilshochill"},{"crs":"MCM","lat":54.0703173686,"lon":-2.869308011,"name":"Morecambe"},{"crs":"STP","lat":51.5325117177,"lon":-0.1264634639,"name":"London St Pancras (Intl)"},{"crs":"FGT","lat":51.0958887823,"lon":-0.2630186615,"name":"Faygate"},{"crs":"ALD","lat":53.3037785043,"lon":-2.2367990664,"name":"Alderley Edge"},{"crs":"TOB","lat":0.0,"lon":0.0,"name":"Tobermory, Mull (Bus)"},{"crs":"COH","lat":51.0463796219,"lon":0.188012419,"name":"Crowborough"},{"crs":"OCK","lat":51.5219901658,"lon":0.2904690845,"name":"Ockendon"},{"crs":"ASN","lat":51.3730438527,"lon":-0.4844567785,"name":"Addlestone"},{"crs":"CLL","lat":50.8392870179,"lon":0.4578614067,"name":"Collington"},{"crs":"MOT","lat":51.3951945663,"lon":-0.2395307665,"name":"Motspur Park"},{"crs":"SDL","lat":53.4299350344,"lon":-2.9914902211,"name":"Sandhills"},{"crs":"KKB","lat":53.1000971529,"lon":-1.2530566654,"name":"Kirkby in Ashfield"},{"crs":"PAD","lat":51.5159936502,"lon":-0.1761739718,"name":"London Paddington"},{"crs":"WOB","lat":52.0181497845,"lon":-0.6540840123,"name":"Woburn Sands"},{"crs":"BNI","lat":51.4720066795,"lon":-0.2526302257,"name":"Barnes Bridge"},{"crs":"BNY","lat":53.5542991668,"lon":-1.4771647089,"name":"Barnsley"},{"crs":"BPN","lat":53.8219131738,"lon":-3.0492746195,"name":"Blackpool North"},{"crs":"KWD","lat":55.8541873225,"lon":-4.0483982083,"name":"Kirkwood"},{"crs":"SCH","lat":55.8851395199,"lon":-4.3528877335,"name":"Scotstounhill"},{"crs":"KNT","lat":51.5817997102,"lon":-0.3169809206,"name":"Kenton"},{"crs":"LHD","lat":51.2988159799,"lon":-0.3332319656,"name":"Leatherhead"},{"crs":"HCR","lat":0.0,"lon":0.0,"name":"Hykeham Crossroads (Bus)"},{"crs":"DRO","lat":53.3013672328,"lon":-1.4687785523,"name":"Dronfield"},{"crs":"RHA","lat":0.0,"lon":0.0,"name":"Robin Hood Airport (Bus)"},{"crs":"MRD","lat":50.8318965453,"lon":-3.7763657489,"name":"Morchard Road"},{"crs":"CHU","lat":53.3759271236,"lon":-2.1883026988,"name":"Cheadle Hulme"},{"crs":"LIC","lat":52.6801449053,"lon":-1.8254196989,"name":"Lichfield City"},{"crs":"DSM","lat":52.2729968561,"lon":1.5234699681,"name":"Darsham"},{"crs":"ENF","lat":51.6520236943,"lon":-0.0793276371,"name":"Enfield Town"},{"crs":"SSE","lat":50.8344255052,"lon":-0.2717204927,"name":"Shoreham-by-Sea"},{"crs":"LGF","lat":51.3961532927,"lon":0.3003641523,"name":"Longfield"},{"crs":"LIP","lat":51.0713144379,"lon":-0.8002284526,"name":"Liphook"},{"crs":"ACC","lat":51.5087144396,"lon":-0.2629706842,"name":"Acton Central"},{"crs":"NHE","lat":51.3130009459,"lon":0.4549295085,"name":"New Hythe"},{"crs":"GCH","lat":56.0798628465,"lon":-4.8257163937,"name":"Garelochhead"},{"crs":"GSN","lat":51.6866139472,"lon":-0.3817412002,"name":"Garston (Hertfordshire)"},{"crs":"WRY","lat":51.4577065703,"lon":-0.5419218829,"name":"Wraysbury"},{"crs":"RID","lat":52.0264010784,"lon":-0.5945570074,"name":"Ridgmont"},{"crs":"KNF","lat":53.3017889179,"lon":-2.3717905991,"name":"Knutsford"},{"crs":"STN","lat":56.9668228359,"lon":-2.2252970541,"name":"Stonehaven"},{"crs":"WHP","lat":51.5484739871,"lon":-0.1918369115,"name":"West Hampstead Thameslink"},{"crs":"DIS","lat":52.3736557672,"lon":1.1236974281,"name":"Diss"},{"crs":"MLG","lat":57.0059876674,"lon":-5.8295964632,"name":"Mallaig"},{"crs":"REI","lat":51.2419565279,"lon":-0.2038251298,"name":"Reigate"},{"crs":"DNG","lat":51.2964883302,"lon":0.1709371239,"name":"Dunton Green"},{"crs":"LUX","lat":50.3900332784,"lon":-4.7473837933,"name":"Luxulyan"},{"crs":"GFD","lat":51.5423294939,"lon":-0.3458371918,"name":"Greenford"},{"crs":"GNR","lat":54.2445235111,"lon":-3.245570791,"name":"Green Road"},{"crs":"STH","lat":52.1141599012,"lon":0.0313191852,"name":"Shepreth"},{"crs":"XAQ","lat":0.0,"lon":0.0,"name":"Devizes (Bus)"},{"crs":"DUD","lat":52.4883611686,"lon":-1.8713904701,"name":"Duddeston"},{"crs":"FER","lat":51.6864931818,"lon":-3.3958826027,"name":"Fernhill"},{"crs":"CHI","lat":51.6330847909,"lon":0.0098970452,"name":"Chingford"},{"crs":"BKQ","lat":53.3946918414,"lon":-3.0136796307,"name":"Hamilton Square"},{"crs":"MUB","lat":55.9335898652,"lon":-3.0732007772,"name":"Musselburgh"},{"crs":"ULL","lat":53.8536098641,"lon":-1.213972087,"name":"Ulleskelf"},{"crs":"CLP","lat":51.4654790432,"lon":-0.1325216799,"name":"Clapham High Street"},{"crs":"COW","lat":56.1120906604,"lon":-3.3431857147,"name":"Cowdenbeath"},{"crs":"GLH","lat":53.7090414011,"lon":-1.342005094,"name":"Glasshoughton"},{"crs":"ATL","lat":52.5145458457,"lon":1.0223476246,"name":"Attleborough"},{"crs":"BIN","lat":52.9541889786,"lon":-0.9515432965,"name":"Bingham"},{"crs":"LGO","lat":52.3496234145,"lon":-3.1613691596,"name":"Llangynllo"},{"crs":"NHY","lat":0.0,"lon":0.0,"name":"New Hey"},{"crs":"WKD","lat":53.5197733895,"lon":-2.3963210098,"name":"Walkden"},{"crs":"HRW","lat":51.5921668605,"lon":-0.334571467,"name":"Harrow & Wealdstone"},{"crs":"URM","lat":53.4482686946,"lon":-2.3537965267,"name":"Urmston"},{"crs":"CUA","lat":57.9195124958,"lon":-4.4042706061,"name":"Culrain"},{"crs":"NBW","lat":56.0570352381,"lon":-2.7307416,"name":"North Berwick"},{"crs":"DMC","lat":55.9048108188,"lon":-4.3628787753,"name":"Drumchapel"},{"crs":"EMP","lat":51.5686405007,"lon":0.220113238,"name":"Emerson Park"},{"crs":"HLE","lat":55.8541812872,"lon":-4.3550101788,"name":"Hillington East"},{"crs":"MGN","lat":52.4671873215,"lon":-1.7556068953,"name":"Marston Green"},{"crs":"UWL","lat":51.3085098921,"lon":-0.0779517413,"name":"Upper Warlingham"},{"crs":"LWM","lat":51.4097459534,"lon":-3.4816171279,"name":"Llantwit Major"},{"crs":"ZDE","lat":51.54409,"lon":0.16604,"name":"Dagenham East Underground"},{"crs":"HIB","lat":51.1494030044,"lon":0.2773322076,"name":"High Brooms"},{"crs":"TQY","lat":50.4611321186,"lon":-3.5432752069,"name":"Torquay"},{"crs":"LEU","lat":56.3751018333,"lon":-2.8937130378,"name":"Leuchars"},{"crs":"LST","lat":51.5179891606,"lon":-0.0814260199,"name":"London Liverpool Street"},{"crs":"ZTG","lat":51.4951816,"lon":-0.2545245,"name":"Turnham Green Underground"},{"crs":"CDY","lat":55.9422118701,"lon":-4.7315906505,"name":"Cartsdyke"},{"crs":"MTC","lat":51.4077371893,"lon":-0.1546460296,"name":"Mitcham Eastfields"},{"crs":"HVF","lat":51.802629954,"lon":-4.9602030959,"name":"Haverfordwest"},{"crs":"CSW","lat":51.3602390676,"lon":1.0669305967,"name":"Chestfield & Swalecliffe"},{"crs":"TIR","lat":51.7209046118,"lon":-3.2463800973,"name":"Tir-phil"},{"crs":"ERL","lat":53.4511350924,"lon":-2.637663239,"name":"Earlestown"},{"crs":"BGL","lat":50.4003465768,"lon":-4.792100098,"name":"Bugle"},{"crs":"HWM","lat":51.7903635622,"lon":0.1323075567,"name":"Harlow Mill"},{"crs":"SYB","lat":53.48457773,"lon":-2.0627415308,"name":"Stalybridge"},{"crs":"KYK","lat":0.0,"lon":0.0,"name":"Kyleakin, Skye (Bus)"},{"crs":"NOA","lat":55.4740518586,"lon":-4.6258262177,"name":"Newton-on-Ayr"},{"crs":"FRT","lat":51.1040267419,"lon":0.294543059,"name":"Frant"},{"crs":"GUI","lat":53.4746257436,"lon":-2.1137105695,"name":"Guide Bridge"},{"crs":"HLW","lat":55.8560199579,"lon":-4.3715799533,"name":"Hillington West"},{"crs":"COX","lat":0.0,"lon":0.0,"name":"Cockermouth (Bus)"},{"crs":"MYT","lat":53.7290012638,"lon":-1.9814257614,"name":"Mytholmroyd"},{"crs":"BKM","lat":51.763132071,"lon":-0.5620129586,"name":"Berkhamsted"},{"crs":"NEL","lat":53.835004752,"lon":-2.2137592953,"name":"Nelson"},{"crs":"NLT","lat":51.5575378564,"lon":-0.3594659313,"name":"Northolt Park"},{"crs":"BES","lat":53.623850628,"lon":-2.9146105015,"name":"Bescar Lane"},{"crs":"BNA","lat":53.4211651987,"lon":-2.2156781124,"name":"Burnage"},{"crs":"SRY","lat":51.5309707447,"lon":0.7953446606,"name":"Shoeburyness"},{"crs":"MSR","lat":51.329172028,"lon":1.3172166059,"name":"Minster"},{"crs":"BNH","lat":51.4649572107,"lon":0.1596462232,"name":"Barnehurst"},{"crs":"KWR","lat":0.0,"lon":0.0,"name":"Kingswear"},{"crs":"DUN","lat":55.9982927278,"lon":-2.513346134,"name":"Dunbar"},{"crs":"LLG","lat":51.9402112034,"lon":-3.8931469601,"name":"Llangadog"},{"crs":"PIN","lat":50.7377830635,"lon":-3.4693328818,"name":"Pinhoe"},{"crs":"POR","lat":51.6125351234,"lon":-3.4071882745,"name":"Porth"},{"crs":"CTR","lat":53.196693478,"lon":-2.8795935104,"name":"Chester"},{"crs":"MCK","lat":48.869722,"lon":2.782778,"name":"Marne La Vallee"},{"crs":"BUO","lat":50.8836864444,"lon":-1.3050322569,"name":"Bursledon"},{"crs":"MDL","lat":53.3599571529,"lon":-2.0833530735,"name":"Middlewood"},{"crs":"RHM","lat":51.3311178234,"lon":-0.1234158276,"name":"Reedham (Surrey)"},{"crs":"WHD","lat":51.5474657753,"lon":-0.1911845905,"name":"West Hampstead"},{"crs":"BDH","lat":50.8539549515,"lon":-0.995828373,"name":"Bedhampton"},{"crs":"ROB","lat":53.4100397281,"lon":-2.855933511,"name":"Roby"},{"crs":"KBF","lat":54.2327076683,"lon":-3.1873756637,"name":"Kirkby-in-Furness"},{"crs":"RTR","lat":51.3855475063,"lon":0.5102813656,"name":"Rochester"},{"crs":"RSB","lat":0.0,"lon":0.0,"name":"Rosslare Europort"},{"crs":"STV","lat":55.6342775292,"lon":-4.7507895093,"name":"Stevenston"},{"crs":"TIP","lat":52.5304402381,"lon":-2.0657011572,"name":"Tipton"},{"crs":"ASB","lat":55.6414147524,"lon":-4.8012113176,"name":"Ardrossan South Beach"},{"crs":"DBR","lat":52.0505526513,"lon":1.1826433547,"name":"Derby Road"},{"crs":"DGS","lat":0.0,"lon":0.0,"name":"Douglas (Isle of Man)"},{"crs":"LMS","lat":52.2844887101,"lon":-1.5362100176,"name":"Leamington Spa"},{"crs":"FSK","lat":53.0602722166,"lon":-0.9121875574,"name":"Fiskerton"},{"crs":"HWI","lat":53.5781043152,"lon":-2.539665931,"name":"Horwich Parkway"},{"crs":"WLI","lat":51.4647965742,"lon":0.1016895583,"name":"Welling"},{"crs":"WGC","lat":51.801046252,"lon":-0.2040704819,"name":"Welwyn Garden City"},{"crs":"SOU","lat":50.9074467076,"lon":-1.413595899,"name":"Southampton Central"},{"crs":"RUE","lat":53.3275666063,"lon":-2.6656974127,"name":"Runcorn East"},{"crs":"FNH","lat":51.2119028638,"lon":-0.7924271554,"name":"Farnham"},{"crs":"SRI","lat":52.4434144094,"lon":-1.8373894946,"name":"Spring Road"},{"crs":"TAU","lat":51.0233006619,"lon":-3.1027415191,"name":"Taunton"},{"crs":"ALT","lat":53.3877149438,"lon":-2.3468887785,"name":"Altrincham"},{"crs":"HWT","lat":0.0,"lon":0.0,"name":"Haworth (Bus)"},{"crs":"WER","lat":0.0,"lon":0.0,"name":"Wedgwood Old Road Bridge (Bus)"},{"crs":"WDS","lat":53.7567855968,"lon":-1.4428794194,"name":"Woodlesford"},{"crs":"LEL","lat":50.1841219731,"lon":-5.436546537,"name":"Lelant"},{"crs":"MNR","lat":53.3947759882,"lon":-3.1714375849,"name":"Manor Road"},{"crs":"PPL","lat":51.6979621676,"lon":-3.0142362692,"name":"Pontypool & New Inn"},{"crs":"RDG","lat":51.4587843919,"lon":-0.9718632259,"name":"Reading"},{"crs":"WNR","lat":51.4856483581,"lon":-0.6065340405,"name":"Windsor & Eton Riverside"},{"crs":"BDF","lat":0.0,"lon":0.0,"name":"Bodmin TSB Bank (Bus)"},{"crs":"XAH","lat":0.0,"lon":0.0,"name":"Callington (Bus)"},{"crs":"SWT","lat":53.6238280654,"lon":-1.8815786921,"name":"Slaithwaite"},{"crs":"RCD","lat":53.6103052372,"lon":-2.1535241469,"name":"Rochdale"},{"crs":"CYP","lat":51.4181071597,"lon":-0.0726098733,"name":"Crystal Palace"},{"crs":"DDG","lat":52.3720667488,"lon":-1.7529002657,"name":"Dorridge"},{"crs":"KBX","lat":51.8413956811,"lon":1.2149925753,"name":"Kirby Cross"},{"crs":"SBJ","lat":52.44754022,"lon":-2.1338762897,"name":"Stourbridge Junction"},{"crs":"CRI","lat":51.5584511149,"lon":-0.2126766276,"name":"Cricklewood"},{"crs":"WDU","lat":51.4407160586,"lon":-0.0913715069,"name":"West Dulwich"},{"crs":"SNN","lat":53.5148307306,"lon":-2.33746102,"name":"Swinton (Manchester)"},{"crs":"BRP","lat":52.3954327249,"lon":1.5438106161,"name":"Brampton (Suffolk)"},{"crs":"COV","lat":52.4008119707,"lon":-1.5134596382,"name":"Coventry"},{"crs":"DGL","lat":51.44005183,"lon":-3.1805904973,"name":"Dingle Road"},{"crs":"PYC","lat":51.5237658808,"lon":-3.3929177726,"name":"Pontyclun"},{"crs":"LNY","lat":51.508060497,"lon":-0.5417561474,"name":"Langley"},{"crs":"GRP","lat":51.4308612288,"lon":0.0217254871,"name":"Grove Park"},{"crs":"HOU","lat":51.4619443023,"lon":-0.3622769433,"name":"Hounslow"},{"crs":"SAE","lat":53.8384914801,"lon":-1.7904804245,"name":"Saltaire"},{"crs":"BEH","lat":52.4792950275,"lon":-1.4673921033,"name":"Bedworth"},{"crs":"SCY","lat":51.3629630131,"lon":-0.0934565834,"name":"South Croydon"},{"crs":"BCY","lat":51.4646469665,"lon":-0.037536687,"name":"Brockley"},{"crs":"AVI","lat":43.9419,"lon":4.8047,"name":"Avignon"},{"crs":"VIC","lat":51.4952556389,"lon":-0.1445588027,"name":"London Victoria"},{"crs":"BWD","lat":53.4127165168,"lon":-2.5253078702,"name":"Birchwood"},{"crs":"HWN","lat":51.7810684496,"lon":0.0951317997,"name":"Harlow Town"},{"crs":"FRO","lat":51.2272687887,"lon":-2.3099967433,"name":"Frome"},{"crs":"AWT","lat":54.8094635941,"lon":-2.77207102,"name":"Armathwaite"},{"crs":"CAT","lat":51.2821396138,"lon":-0.0783071165,"name":"Caterham"},{"crs":"COB","lat":50.8333704747,"lon":0.4268587554,"name":"Cooden Beach"},{"crs":"XMT","lat":0.0,"lon":0.0,"name":"East Midlands Airport (Bus)"},{"crs":"WVH","lat":52.5878431074,"lon":-2.1195145109,"name":"Wolverhampton"},{"crs":"HME","lat":50.8713728684,"lon":-1.3291620567,"name":"Hamble"},{"crs":"AUG","lat":53.5542457739,"lon":-2.8952207864,"name":"Aughton Park"},{"crs":"BEX","lat":50.8410404064,"lon":0.4770166122,"name":"Bexhill"},{"crs":"SKK","lat":0.0,"lon":0.0,"name":"Selkirk (Bus)"},{"crs":"ACY","lat":51.6447068935,"lon":-3.3269879003,"name":"Abercynon"},{"crs":"CML","lat":55.8343355936,"lon":-4.1581801417,"name":"Carmyle"},{"crs":"PBR","lat":51.6970655294,"lon":-0.1926055313,"name":"Potters Bar"},{"crs":"TOL","lat":51.3768583799,"lon":-0.2794614607,"name":"Tolworth"},{"crs":"APN","lat":55.0359476518,"lon":-1.7110465264,"name":"Newcastle Airport"},{"crs":"ADN","lat":55.6397050443,"lon":-4.812675122,"name":"Ardrossan Town"},{"crs":"GDP","lat":51.5819020748,"lon":0.2059643084,"name":"Gidea Park"},{"crs":"SDM","lat":55.7774896327,"lon":-3.9569898071,"name":"Shieldmuir"},{"crs":"SEV","lat":51.2768634917,"lon":0.1816689307,"name":"Sevenoaks"},{"crs":"FRM","lat":50.8530318403,"lon":-1.1920371548,"name":"Fareham"},{"crs":"HNA","lat":50.7526383084,"lon":-1.7141265383,"name":"Hinton Admiral"},{"crs":"MRN","lat":51.1751738187,"lon":0.4931692537,"name":"Marden"},{"crs":"MIA","lat":53.3650399084,"lon":-2.2729795172,"name":"Manchester Airport"},{"crs":"XAO","lat":0.0,"lon":0.0,"name":"Corsham (Bus)"},